STOP_ID,STOP_NAME,STOP_LAT,STOP_LON,LOCATION_T,PARENT_STA,TRIP_COUNT,TRIP_IDS,ROUTE_IDS,ROUTE_NAMS
"0001RLW","Railways",-1.290884,36.828242,0,"NULL",14,"50125110 50125111 50126110 50126111 60056110 60056111 70002110 70002111 70008110 70008111 70102110 70102111 70111110 70111111","50205012511 50205012511 50205012611 50205012611 60201005611 60201005611 70601000211 70601000211 70200000811 70200000811 70600010211 70600010211 70400011111 70400011111","125 125 126 126 56 56 2 2 8 8 102 102 111 111"
"0002KOJ","Koja",-1.28123,36.82259599999,1,"NULL",0,"NULL","NULL","NULL"
"0003NGR","Ngara",-1.274395,36.82380599999,1,"NULL",0,"NULL","NULL","NULL"
"0004ODN","Odeon",-1.282769,36.825032,1,"NULL",0,"NULL","NULL","NULL"
"0005AMB","Kencom/Ambassadeur",-1.285963,36.826048,1,"NULL",0,"NULL","NULL","NULL"
"0006BSS","Bus Station",-1.287191,36.828881,1,"NULL",0,"NULL","NULL","NULL"
"0007COM","Commercial",-1.284282,36.826188,1,"NULL",0,"NULL","NULL","NULL"
"0008MUT","Muthurwa",-1.288049,36.833947,1,"NULL",0,"NULL","NULL","NULL"
"0010OTC","OTC",-1.284947,36.83099399999,1,"NULL",0,"NULL","NULL","NULL"
"0011TUS","Tusker/Ronald Ngala",-1.285346,36.828574,1,"NULL",0,"NULL","NULL","NULL"
"0013ALS","Allsops",-1.244951,36.867888,1,"NULL",0,"NULL","NULL","NULL"
"0014KRA","Kariobangi Round About",-1.262408,36.87905099999,1,"NULL",0,"NULL","NULL","NULL"
"010044G","44 Githurai",-1.195514202,36.90269529999,0,"NULL",1,"1107D110","10000107D11","107D"
"0100AAA","Sahala",-1.206232309,36.79068088999,0,"NULL",1,"1107D110","10000107D11","107D"
"0100AAE","Aga Khan Hospital Entrance",-1.26177,36.82218,0,"NULL",1,"1011A110","10100011A11","11A"
"0100ACP","PCEA",-1.184212893,36.90751523,0,"NULL",1,"1107D110","10000107D11","107D"
"0100AEI","Nyari Police",-1.225512028,36.78804158999,0,"NULL",1,"10108110","10200010811","108"
"0100AEL","Membley Stage",-1.160296798,36.92236661999,0,"NULL",1,"1107D110","10000107D11","107D"
"0100AKA","Chamoka",-1.218550569,36.77443742999,0,"NULL",1,"10108110","10200010811","108"
"0100AL2","Lane 26",-1.202838153,36.7692849,0,"NULL",1,"10114110","10000114011","114R"
"0100AMY","Kwa Nyama",-1.204494238,36.78601384,0,"NULL",1,"1107D110","10000107D11","107D"
"0100ANJ","Kwa Kiwanja",-1.171676248,36.91650866999,0,"NULL",1,"1107D110","10000107D11","107D"
"0100A.P","A.P.",-1.178289056,36.91195965,0,"NULL",1,"1107D110","10000107D11","107D"
"0100APC","PCEA",-1.188633174,36.73722177999,0,"NULL",1,"10114110","10000114011","114R"
"0100ARG","Arya Girls' Secondary School",-1.26081,36.81996999999,0,"NULL",1,"1011A110","10100011A11","11A"
"0100ARI","Kwa Daktari",-1.185328692,36.73338085,0,"NULL",1,"10114110","10000114011","114R"
"0100ASD","Ambassadors",-1.19794,36.75536999999,0,"NULL",2,"10107110 10114110","10400010711 10000114011","107 114R"
"0100ASW","Car Wash",-1.204816103,36.78255915999,0,"NULL",1,"1107D110","10000107D11","107D"
"0100AWA","Wataalam",-1.149612397,36.94740772,0,"NULL",1,"1107D110","10000107D11","107D"
"0100BKH","Bypass Stage Kiambu",-1.215780973,36.83506072,0,"NULL",1,"1107D110","10000107D11","107D"
"0100BKK","Kabuku",-1.154729247,36.67456269,0,"NULL",1,"10114110","10000114011","114R"
"0100BLD","God's Ability",-1.202671891,36.76871896,0,"NULL",1,"10107110","10400010711","107"
"0100CAR","Kwa Machiri",-1.17373082,36.71296387999,0,"NULL",1,"10114110","10000114011","114R"
"0100CBR","Cooperative Bank Ruaka",-1.20678,36.78464,0,"NULL",2,"10107110 10114110","10400010711 10000114011","107 114R"
"0100CCD","Coca Cola Depot",-1.25983,36.81759999999,0,"NULL",1,"1011A110","10100011A11","11A"
"0100CHE","Commission Of Higher Education",-1.227579,36.797994,0,"NULL",1,"10108110","10200010811","108"
"0100CHL","Chantilly School",-1.181032,36.762044,0,"NULL",2,"10106110 10116110","10300106011 10000116011","106 116"
"0100CTC","Christco",-1.19626,36.75305,0,"NULL",2,"10107110 10114110","10400010711 10000114011","107 114R"
"0100CTR","Doctor's Park",-1.261465877,36.82164698999,0,"NULL",1,"1011A110","10100011A11","11A"
"0100DPA","Delta Petrol Station Ruaka/Border",-1.208925247,36.78782701,0,"NULL",4,"10106110 10107110 10116110 1011F110","10300106011 10400010711 10000116011 10300011F11","106 107 116 11B"
"0100EIE","Mfereji",-1.203090316,36.77023709,0,"NULL",1,"10107110","10400010711","107"
"0100EIL","Milele",-1.200815767,36.76228434,0,"NULL",1,"10114110","10000114011","114R"
"0100EIO","Sovereign",-1.169498205,36.70019388,0,"NULL",1,"10114110","10000114011","114R"
"0100ESN","Dispensary",-1.190204948,36.73913687,0,"NULL",1,"10114110","10000114011","114R"
"0100GAO","Kahigo",-1.203959316,36.77340478,0,"NULL",1,"10114110","10000114011","114R"
"0100GUG","Guango",-1.195629,36.78087099999,0,"NULL",2,"10106110 10116110","10300106011 10000116011","106 116"
"0100GVS","Green Valley School",-1.124978,36.67715599999,0,"NULL",1,"10116110","10000116011","116"
"0100HYD","Shady",-1.19387573,36.74975573999,0,"NULL",1,"10114110","10000114011","114R"
"0100IKW","Kwa Viti",-1.186262101,36.73443764,0,"NULL",1,"10114110","10000114011","114R"
"0100ILL","Milele",-1.204420656,36.77496046,0,"NULL",1,"10114110","10000114011","114R"
"0100INT","Nish Raaj Estate",-1.257623434,36.81249261,0,"NULL",1,"1011A110","10100011A11","11A"
"0100ITS","Gwaiti",-1.18686676,36.73514843,0,"NULL",1,"10114110","10000114011","114R"
"0100JAK","Jakai",-1.219687,36.77221999999,0,"NULL",1,"10108110","10200010811","108"
"0100JO.","O.J",-1.152970523,36.92023157999,0,"NULL",1,"1107D110","10000107D11","107D"
"0100JOA","Kianjogu",-1.183204383,36.73027486,0,"NULL",1,"10114110","10000114011","114R"
"0100JYL","Joyland",-1.204896569,36.77661538,0,"NULL",1,"10107110","10400010711","107"
"0100KCK","Kenchic",-1.132722,36.69800999999,0,"NULL",1,"10116110","10000116011","116"
"0100KHR","Kahawa Railways Roundabout",-1.186098,36.90681699999,0,"NULL",1,"1107D110","10000107D11","107D"
"0100KMU","Kwa Sukuma",-1.179068416,36.72405212999,0,"NULL",1,"10114110","10000114011","114R"
"0100KNA","Kona",-1.221391,36.779214,0,"NULL",1,"10108110","10200010811","108"
"0100KNE","Kwa Njenga",-1.220363742,36.77845537999,0,"NULL",1,"10108110","10200010811","108"
"0100KSS","Kwa Shule/Seth Home Of Love Children's Home/Muchatha Dispensary",-1.189608,36.77325299999,0,"NULL",2,"10106110 10116110","10300106011 10000116011","106 116"
"0100KTC","Quickmart",-1.206720471,36.78343892,0,"NULL",2,"10107110 10114110","10400010711 10000114011","107 114R"
"0100KWH","Kwa Chief",-1.216485232,36.82175428,0,"NULL",1,"1107D110","10000107D11","107D"
"0100LDL","Redhill",-1.169991821,36.7014733,0,"NULL",1,"10114110","10000114011","114R"
"0100LHH","Jamhuri School",-1.27250433,36.82257503,0,"NULL",1,"10114110","10000114011","114R"
"0100LIK","Likoni",-1.179095,36.760938,0,"NULL",2,"10106110 10116110","10300106011 10000116011","106 116"
"0100LMC","Limuru Catering",-1.124471,36.679689,0,"NULL",1,"10116110","10000116011","116"
"0100LPS","Limuru Post Office",-1.118464,36.643126,0,"NULL",1,"10116110","10000116011","116"
"0100LSM","Life Sanctuary/Muchatha",-1.191495,36.77522299999,0,"NULL",2,"10106110 10116110","10300106011 10000116011","106 116"
"0100..M","K.M.",-1.167726517,36.91900849,0,"NULL",1,"1107D110","10000107D11","107D"
"0100MCO","Stima Sacco",-1.272774106,36.8208611,0,"NULL",1,"10107110","10400010711","107"
"0100MCY","Mothers Mercys/GD",-1.179957,36.72540099999,0,"NULL",1,"10114110","10000114011","114R"
"0100MFB","Mifereji/God's Ability",-1.20213,36.76693,0,"NULL",2,"10107110 10114110","10400010711 10000114011","107 114R"
"0100MIS","Mary Immaculate Secondary School/Muchatha",-1.190679,36.77429699999,0,"NULL",2,"10106110 10116110","10300106011 10000116011","106 116"
"0100MOM","Mombasa",-1.17786,36.760345,0,"NULL",2,"10106110 10116110","10300106011 10000116011","106 116"
"0100MOU","Mugumo",-1.209636211,36.79986476999,0,"NULL",1,"1107D110","10000107D11","107D"
"0100MRB","Maramba Tea Factory",-1.134476,36.703498,0,"NULL",1,"10116110","10000116011","116"
"0100MRC","Movers/Rosslyn Centre",-1.210947633,36.79020881999,0,"NULL",5,"10106110 10107110 10114110 10116110 1011F110","10300106011 10400010711 10000114011 10000116011 10300011F11","106 107 114R 116 11B"
"0100NAM","National Oil/Muchatha",-1.193428,36.777892,0,"NULL",2,"10106110 10116110","10300106011 10000116011","106 116"
"0100NCE","Container",-1.20452258,36.77553981999,0,"NULL",1,"10114110","10000114011","114R"
"0100NDT","Ndenderu Junction",-1.19233,36.74369999999,0,"NULL",2,"10107110 10114110","10400010711 10000114011","107 114R"
"0100NJT","Kwa Njoki/Thimbigwa Ack",-1.183852,36.76368399999,0,"NULL",2,"10106110 10116110","10300106011 10000116011","106 116"
"0100NKD","Ndenderu Kwa Maduka",-1.19449,36.75061,0,"NULL",1,"10107110","10400010711","107"
"0100NMT","New Muthaiga",-1.228621,36.798616,0,"NULL",1,"10108110","10200010811","108"
"0100NRP","Round About Eastern Bypass",-1.155235,36.926119,0,"NULL",1,"1107D110","10000107D11","107D"
"0100NSO","Movers",-1.210058659,36.7891708,0,"NULL",2,"10106110 10107110","10300106011 10400010711","106 107"
"0100ONO","Ngomongo",-1.202822059,36.89014524,0,"NULL",1,"1107D110","10000107D11","107D"
"0100OOA","Kwa Soko",-1.149789423,36.94882928999,0,"NULL",1,"1107D110","10000107D11","107D"
"0100OTN","Hilton",-1.150637001,36.94259048,0,"NULL",1,"1107D110","10000107D11","107D"
"0100OTS","Posta",-1.170669078,36.70802592999,0,"NULL",1,"10114110","10000114011","114R"
"0100PEF","Pefa/All Nations/Muchatha",-1.197129,36.782933,0,"NULL",2,"10106110 10116110","10300106011 10000116011","106 116"
"0100PNA","Amani Plaza",-1.259625882,36.81713551,0,"NULL",1,"1011A110","10100011A11","11A"
"0100POA","Pa Mutoori",-1.202194422,36.76717132,0,"NULL",1,"10114110","10000114011","114R"
"0100POW","Power",-1.21731,36.77825299999,0,"NULL",1,"10108110","10200010811","108"
"0100PSA","La Philla Carwash",-1.190634102,36.90608829,0,"NULL",1,"1107D110","10000107D11","107D"
"0100RBJ","Ruaka/Banana Junction/Tuskys Supermarket",-1.20722,36.78602,0,"NULL",5,"10106110 10107110 10114110 10116110 1011F110","10300106011 10400010711 10000114011 10000116011 10300011F11","106 107 114R 116 11B"
"0100RCN","Ruaka Catholic Church Entrance",-1.20614,36.78058999999,0,"NULL",2,"10107110 10114110","10400010711 10000114011","107 114R"
"0100REE","PCEA Ndenderu",-1.195537216,36.75203024999,0,"NULL",1,"10107110","10400010711","107"
"0100RES","Runda Estate Entrance",-1.21873,36.80176999999,0,"NULL",5,"10106110 10107110 10114110 10116110 1011F110","10300106011 10400010711 10000114011 10000116011 10300011F11","106 107 114R 116 11B"
"0100RGH","Jamhuri High School",-1.272203922,36.82239531999,0,"NULL",3,"10107110 1011A110 1011F110","10400010711 10100011A11 10300011F11","107 11A 11B"
"0100RJI","Ruiru Road Junction",-1.152105331,36.91994189999,0,"NULL",1,"1107D110","10000107D11","107D"
"0100RKH","Runda/Karura Carwash",-1.22091,36.80143999999,0,"NULL",5,"10106110 10107110 10114110 10116110 1011F110","10300106011 10400010711 10000114011 10000116011 10300011F11","106 107 114R 116 11B"
"0100RRD","Ruaka Redeemed Gospel Church",-1.20651,36.78206,0,"NULL",2,"10107110 10114110","10400010711 10000114011","107 114R"
"0100RRJ","Redhill Road Junction",-1.23398,36.80339,0,"NULL",5,"10106110 10107110 10114110 10116110 1011F110","10300106011 10400010711 10000114011 10000116011 10300011F11","106 107 114R 116 11B"
"0100RRP","Rosslyn Road/Karura Community Chapel",-1.216397882,36.79927468,0,"NULL",5,"10106110 10107110 10114110 10116110 1011F110","10300106011 10400010711 10000114011 10000116011 10300011F11","106 107 114R 116 11B"
"0100RUD","Runda Road",-1.215553,36.814957,0,"NULL",1,"1107D110","10000107D11","107D"
"0100RUI","Marurui/JuaKali",-1.211281747,36.87443823,0,"NULL",1,"1107D110","10000107D11","107D"
"0100RYA","Rumenye",-1.199644804,36.75815105,0,"NULL",2,"10107110 10114110","10400010711 10000114011","107 114R"
"0100SAR","Car Wash",-1.217005616,36.77721083,0,"NULL",1,"10108110","10200010811","108"
"0100SHT","Sacred Heart",-1.186278,36.767456,0,"NULL",2,"10106110 10116110","10300106011 10000116011","106 116"
"0100SKU","Kibutu Stage",-1.188273758,36.77131802,0,"NULL",1,"10116110","10000116011","116"
"0100SLG","Slaughter/Bypass",-1.20578,36.78005,0,"NULL",2,"10107110 10114110","10400010711 10000114011","107 114R"
"0100SNW","Good News/Nyari Gate 2",-1.225479841,36.79151773,0,"NULL",1,"10108110","10200010811","108"
"0100S/R","Rosslyn Road/Riviera",-1.217128962,36.80043072,0,"NULL",1,"10114110","10000114011","114R"
"0100STI","Site",-1.178033084,36.72245889999,0,"NULL",1,"10114110","10000114011","114R"
"0100T1I","Barrier 1/Nyari Gate 1",-1.226568818,36.79569392999,0,"NULL",1,"10108110","10200010811","108"
"0100TCP","Total/City Park",-1.25943,36.82672999999,0,"NULL",5,"10106110 10107110 10114110 10116110 1011F110","10300106011 10400010711 10000114011 10000116011 10300011F11","106 107 114R 116 11B"
"0100TIG","Tigoni",-1.126686,36.67178799999,0,"NULL",1,"10116110","10000116011","116"
"0100TOR","Metro",-1.215183198,36.85956537999,0,"NULL",1,"1107D110","10000107D11","107D"
"0100TPS","Post",-1.149687499,36.94552481,0,"NULL",1,"1107D110","10000107D11","107D"
"0100TTM","Total/Muchatha",-1.193078,36.777371,0,"NULL",2,"10106110 10116110","10300106011 10000116011","106 116"
"0100UBP","Bumps",-1.206464499,36.78183763999,0,"NULL",1,"10114110","10000114011","114R"
"0100UEA","Delta Petrol Station Ruaka/Border",-1.208792657,36.78792625999,0,"NULL",1,"10114110","10000114011","114R"
"0100UMA","Munata",-1.220374471,36.76839172999,0,"NULL",1,"10108110","10200010811","108"
"0100UMT","Makutano",-1.192345351,36.74523084999,0,"NULL",1,"10114110","10000114011","114R"
"0100VDA","Victory Gospel/Sda",-1.19432,36.74289999999,0,"NULL",1,"10107110","10400010711","107"
"0100VEV","Velvet Lounge/Kigwaru",-1.202782,36.785553,0,"NULL",2,"10106110 10116110","10300106011 10000116011","106 116"
"0100VIN","Victory Inn",-1.181773,36.76247599999,0,"NULL",2,"10106110 10116110","10300106011 10000116011","106 116"
"0100VLU","6th Parklands Avenue/Regal House/Kobil",-1.257893175,36.8269524,0,"NULL",2,"10107110 10114110","10400010711 10000114011","107 114R"
"0100WSI","Nyari West",-1.225469112,36.78594946999,0,"NULL",1,"10108110","10200010811","108"
"0100XAM","Maxx",-1.182002753,36.72858506,0,"NULL",1,"10114110","10000114011","114R"
"0101AGA","Aga Khan Academy",-1.26628,36.82330999999,0,"NULL",6,"10106111 10107111 10114111 10116111 1011A111 1011F111","10300106011 10400010711 10000114011 10000116011 10100011A11 10300011F11","106 107 114R 116 11A 11B"
"0101AKE","Aga Khan Entrance",-1.26178,36.82224,0,"NULL",1,"1011A111","10100011A11","11A"
"0101AKH","Aga Khan Hospital Junction/3rd Parklands Ave",-1.26288,36.8249,0,"NULL",1,"1011A111","10100011A11","11A"
"0101AKN","Kwa Nyama",-1.204490429,36.78601920999,0,"NULL",1,"1107D111","10000107D11","107D"
"0101ALM","Amani Plaza/Almond Court",-1.25962,36.81716999999,0,"NULL",1,"1011A111","10100011A11","11A"
"0101AME","Ambassadors Entrance",-1.19804,36.75538,0,"NULL",2,"10107111 10114111","10400010711 10000114011","107 114R"
"0101ARA","Garage",-1.222203738,36.78044557999,0,"NULL",1,"10108111","10200010811","108"
"0101ARC","Car Wash",-1.204839116,36.78251624,0,"NULL",1,"1107D111","10000107D11","107D"
"0101ARR","Nish Raaj/Mulberry",-1.257580519,36.81246042,0,"NULL",1,"1011A111","10100011A11","11A"
"0101ARY","Arya Girls' Secondary School",-1.26085,36.82007,0,"NULL",1,"1011A111","10100011A11","11A"
"0101BKH","Bypass Stage Kiambu",-1.215448,36.83520999999,0,"NULL",1,"1107D111","10000107D11","107D"
"0101BLU","Blue Kiosk Stage",-1.154688,36.67568099999,0,"NULL",1,"10114111","10000114011","114R"
"0101CAV","Church Of Acts/Velvet Lounge",-1.203525,36.785397,0,"NULL",2,"10106111 10116111","10300106011 10000116011","106 116"
"0101CEF","Kwa Chief",-1.216447681,36.8218857,0,"NULL",1,"1107D111","10000107D11","107D"
"0101CHC","Christco Church",-1.19628,36.75294,0,"NULL",2,"10107111 10114111","10400010711 10000114011","107 114R"
"0101CHF","Sub Chief",-1.219799,36.77819699999,0,"NULL",1,"10108111","10200010811","108"
"0101CPK","City Park",-1.26057,36.82614999999,0,"NULL",5,"10106111 10107111 10114111 10116111 1011F111","10300106011 10400010711 10000114011 10000116011 10300011F11","106 107 114R 116 11B"
"0101DGG","Ridgesways Girls",-1.215046,36.86468299999,0,"NULL",1,"1107D111","10000107D11","107D"
"0101DPB","Delta Petrol Station/Border",-1.20918,36.7882,0,"NULL",5,"10106111 10107111 10114111 10116111 1011F111","10300106011 10400010711 10000114011 10000116011 10300011F11","106 107 114R 116 11B"
"0101ETA","Marrieta",-1.143779,36.661749,0,"NULL",1,"10114111","10000114011","114R"
"0101FRK","Furaha/Kag Ndenderu/Catholic",-1.1954,36.75175,0,"NULL",2,"10107111 10114111","10400010711 10000114011","107 114R"
"0101GOG","Guango",-1.195673,36.780783,0,"NULL",2,"10106111 10116111","10300106011 10000116011","106 116"
"0101GRJ","Gacharage Junction",-1.20041,36.76057999999,0,"NULL",2,"10107111 10114111","10400010711 10000114011","107 114R"
"0101GVS","Green Valley School",-1.125007,36.677194,0,"NULL",1,"10116111","10000116011","116"
"0101HMO","Chamoka",-1.218749052,36.77409947,0,"NULL",1,"10108111","10200010811","108"
"0101HUS","SDA Church",-1.220481759,36.76972746999,0,"NULL",1,"10108111","10200010811","108"
"0101HWO","Mwisho Road",-1.222670442,36.78127706,0,"NULL",1,"10108111","10200010811","108"
"0101IAI","Gwaiti",-1.18060112,36.72631859999,0,"NULL",1,"10114111","10000114011","114R"
"0101IGA","Kahigo",-1.203356981,36.77130996999,0,"NULL",1,"10114111","10000114011","114R"
"0101ION","Junction To Limuru Town",-1.133245,36.64356399999,0,"NULL",1,"10114111","10000114011","114R"
"0101IRR","River",-1.221822864,36.77986622,0,"NULL",1,"10108111","10200010811","108"
"0101JAK","Jakai",-1.219745,36.77222199999,0,"NULL",1,"10108111","10200010811","108"
"0101JHS","Jamhuri High School",-1.27335,36.82296999999,0,"NULL",6,"10106111 10107111 10114111 10116111 1011A111 1011F111","10300106011 10400010711 10000114011 10000116011 10100011A11 10300011F11","106 107 114R 116 11A 11B"
"0101JLI","Jua Kali",-1.211161,36.87448599999,0,"NULL",1,"1107D111","10000107D11","107D"
"0101KAT","Kwa Njoki/Ack Thimbigwa",-1.183893,36.76363599999,0,"NULL",2,"10106111 10116111","10300106011 10000116011","106 116"
"0101KCK","Kenchic",-1.132763,36.697946,0,"NULL",1,"10116111","10000116011","116"
"0101KHR","Kahawa Railways Roundabout",-1.185664,36.90666699999,0,"NULL",1,"1107D111","10000107D11","107D"
"0101KKB","Kamukabi",-1.222324,36.78062299999,0,"NULL",1,"10108111","10200010811","108"
"0101KME","Kimera Medical Centre",-1.146608,36.71675299999,0,"NULL",1,"10116111","10000116011","116"
"0101KOB","Kobil/Banana",-1.17466,36.759053,0,"NULL",2,"10106111 10116111","10300106011 10000116011","106 116"
"0101KTO","Kwa Moturi/Gachiraini",-1.20202,36.76619999999,0,"NULL",2,"10107111 10114111","10400010711 10000114011","107 114R"
"0101LIK","Likoni",-1.178733,36.760654,0,"NULL",2,"10106111 10116111","10300106011 10000116011","106 116"
"0101LMA","Mlanda",-1.219961411,36.76738858,0,"NULL",1,"10108111","10200010811","108"
"0101LMC","Limuru Catering",-1.124567,36.679518,0,"NULL",1,"10116111","10000116011","116"
"0101LSC","Life Sanctuary Church/Muchatha Shopping Centre",-1.19145,36.77507099999,0,"NULL",2,"10106111 10116111","10300106011 10000116011","106 116"
"0101MCC","Muchatha Shopping Centre",-1.192055,36.775879,0,"NULL",2,"10106111 10116111","10300106011 10000116011","106 116"
"0101MCY","Mothers Mercys",-1.180059,36.725487,0,"NULL",1,"10114111","10000114011","114R"
"0101MDS","Muchatha Dispensary/Kwa Shule/Yamongo Drive",-1.189723,36.773257,0,"NULL",2,"10106111 10116111","10300106011 10000116011","106 116"
"0101MIC","Mary Immaculate Catholic Church/Muchatha Shopping Centre",-1.190698,36.774211,0,"NULL",2,"10106111 10116111","10300106011 10000116011","106 116"
"0101MIM","Mimosa",-1.212005,36.80476699999,0,"NULL",1,"1107D111","10000107D11","107D"
"0101M.K","K.M.",-1.16617772,36.91985339,0,"NULL",1,"1107D111","10000107D11","107D"
"0101MKB","Mkulima Supermarket/Banana",-1.175287,36.75929099999,0,"NULL",2,"10106111 10116111","10300106011 10000116011","106 116"
"0101MOM","Mombasa",-1.177906,36.760269,0,"NULL",2,"10106111 10116111","10300106011 10000116011","106 116"
"0101MRB","Maramba Tea Factory",-1.134492,36.70345799999,0,"NULL",1,"10116111","10000116011","116"
"0101MTH","Muthaiga Junction",-1.228633,36.798518,0,"NULL",1,"10108111","10200010811","108"
"0101MUC","Redeemed/Pefa Muchatha",-1.197213,36.782874,0,"NULL",2,"10106111 10116111","10300106011 10000116011","106 116"
"0101NDJ","Ndenderu Junction/Makutano",-1.192266,36.743758,0,"NULL",1,"10107111","10400010711","107"
"0101N'G","Kwa Ng'ang'a",-1.217756635,36.77814424,0,"NULL",1,"10108111","10200010811","108"
"0101NGG","Nyari Gate 3",-1.225371,36.78559599999,0,"NULL",1,"10108111","10200010811","108"
"0101NJK","Kwa Njoki Kamili",-1.184899,36.76449199999,0,"NULL",2,"10106111 10116111","10300106011 10000116011","106 116"
"0101NRE","Nish Raaj Estate",-1.25862,36.81483999999,0,"NULL",1,"1011A111","10100011A11","11A"
"0101NRP","Roundabout Eastern Bypass",-1.155165,36.926129,0,"NULL",1,"1107D111","10000107D11","107D"
"0101NTO","Kwa Kanisa ACK/National Oil",-1.193291,36.77753599999,0,"NULL",2,"10106111 10116111","10300106011 10000116011","106 116"
"0101NYG","Nyari Gate 2",-1.225544,36.791386,0,"NULL",1,"10108111","10200010811","108"
"0101NYP","Nyari Police",-1.225594,36.787764,0,"NULL",1,"10108111","10200010811","108"
"0101NYR","Nyari/Barrier 1",-1.226487,36.795583,0,"NULL",1,"10108111","10200010811","108"
"0101OOO","Githogoro",-1.216517419,36.82500242999,0,"NULL",1,"1107D111","10000107D11","107D"
"0101OTA","National Oil",-1.193820602,36.74957334999,0,"NULL",1,"10107111","10400010711","107"
"0101PMR","Pm Flats/ Runda View",-1.20429,36.77438999999,0,"NULL",2,"10107111 10114111","10400010711 10000114011","107 114R"
"0101PMV","Pm Flats/ Runda View 2",-1.20369,36.77217999999,0,"NULL",2,"10107111 10114111","10400010711 10000114011","107 114R"
"0101POW","Power",-1.217477,36.77821399999,0,"NULL",1,"10108111","10200010811","108"
"0101RCC","Ruaka Catholic Church",-1.2062,36.78054999999,0,"NULL",2,"10107111 10114111","10400010711 10000114011","107 114R"
"0101RCK","Ruaka ACK Church",-1.20676,36.78381999999,0,"NULL",2,"10107111 10114111","10400010711 10000114011","107 114R"
"0101RDC","Ruaka DC",-1.2065,36.78170999999,0,"NULL",2,"10107111 10114111","10400010711 10000114011","107 114R"
"0101RED","Red Hill/Posta",-1.17081,36.70855399999,0,"NULL",1,"10114111","10000114011","114R"
"0101REE","Runda Estate Entrance",-1.2186,36.80167999999,0,"NULL",5,"10106111 10107111 10114111 10116111 1011F111","10300106011 10400010711 10000114011 10000116011 10300011F11","106 107 114R 116 11B"
"0101REN","Redeemed Ndenderu",-1.19238,36.74504,0,"NULL",2,"10107111 10114111","10400010711 10000114011","107 114R"
"0101RIE","Limuru Diaries",-1.125841,36.642507,0,"NULL",1,"10114111","10000114011","114R"
"0101RIH","Commissioner of Higher Education",-1.227861643,36.79806501,0,"NULL",1,"10108111","10200010811","108"
"0101RJI","Ruiru Road Junction",-1.152135,36.91984,0,"NULL",1,"1107D111","10000107D11","107D"
"0101RKJ","Ruaka Junction",-1.207095981,36.78598165999,0,"NULL",2,"10106111 10116111","10300106011 10000116011","106 116"
"0101RMY","Rumenye",-1.19961,36.75793999999,0,"NULL",2,"10107111 10114111","10400010711 10000114011","107 114R"
"0101ROK","Rosslyn Road/Karura Community Chapel",-1.216499805,36.79930687,0,"NULL",5,"10106111 10107111 10114111 10116111 1011F111","10300106011 10400010711 10000114011 10000116011 10300011F11","106 107 114R 116 11B"
"0101ROR","Rosslyn Road/Riviera",-1.217250824,36.80042267,0,"NULL",5,"10106111 10107111 10114111 10116111 1011F111","10300106011 10400010711 10000114011 10000116011 10300011F11","106 107 114R 116 11B"
"0101RSH","Roslyn Heights",-1.223669,36.78283199999,0,"NULL",1,"10108111","10200010811","108"
"0101RUA","Marurui",-1.210805833,36.8751812,0,"NULL",1,"1107D111","10000107D11","107D"
"0101RUD","Runda Road",-1.215523,36.815038,0,"NULL",1,"1107D111","10000107D11","107D"
"0101SDA","SDA Church",-1.223143,36.781961,0,"NULL",1,"10108111","10200010811","108"
"0101SHR","Shakers/Rosslyn Gate",-1.21115,36.79023999999,0,"NULL",5,"10106111 10107111 10114111 10116111 1011F111","10300106011 10400010711 10000114011 10000116011 10300011F11","106 107 114R 116 11B"
"0101SHT","Sacred Heart",-1.186283,36.76742099999,0,"NULL",2,"10106111 10116111","10300106011 10000116011","106 116"
"0101SLT","Slaughter",-1.20523,36.77754,0,"NULL",2,"10107111 10114111","10400010711 10000114011","107 114R"
"0101STP","Stima Plaza",-1.27043,36.82048,0,"NULL",6,"10106111 10107111 10114111 10116111 1011A111 1011F111","10300106011 10400010711 10000114011 10000116011 10100011A11 10300011F11","106 107 114R 116 11A 11B"
"0101TIG","Tigoni",-1.126739,36.671944,0,"NULL",1,"10116111","10000116011","116"
"0101VRY","Victory",-1.181719,36.762391,0,"NULL",2,"10106111 10116111","10300106011 10000116011","106 116"
"0101WBR","Wambugu Road",-1.26799,36.82126999999,0,"NULL",6,"10106111 10107111 10114111 10116111 1011A111 1011F111","10300106011 10400010711 10000114011 10000116011 10100011A11 10300011F11","106 107 114R 116 11A 11B"
"0101WIA","Kwa Kuria",-1.218400365,36.774652,0,"NULL",1,"10108111","10200010811","108"
"0101WID","Windsor Advice",-1.215566,36.850327,0,"NULL",1,"1107D111","10000107D11","107D"
"0101YSA","Nyari West",-1.224193937,36.78374468999,0,"NULL",1,"10108111","10200010811","108"
"0101ZAK","Zakawa",-1.179181,36.760914,0,"NULL",2,"10106111 10116111","10300106011 10000116011","106 116"
"0102KHJ","Koja",-1.281428,36.822532,0,"0002KOJ",22,"10106110 10106111 20006110 20006111 20023110 20023111 20025110 20025111 20044111 20044121 20045111 2025A110 3011C110 3011C111 3046B110 80115110 80115111 80118111 80119110 80119111 8119A110 8119A111","10300106011 10300106011 20702000611 20702000611 20000002311 20000002311 20801002511 20801002511 21100004411 21100004412 20000004511 20801025A11 30100011C11 30100011C11 30000046B11 80000115011 80000115011 80100011811 80000011911 80000011911 80000119A11 80","106 106 6 6 23W 23W 25 25 44G 44Z 45K 25A 11C 11C 46B 115 115 118 119 119 119A 119A"
"0103MSQ","Kwa Mosque/Highridge Mwisho",-1.25687,36.81076999999,0,"NULL",1,"1011A111","10100011A11","11A"
"0110AAN","Oilibya/2nd Parklands Avenue",-1.264200211,36.82469129999,0,"NULL",1,"10106110","10300106011","106"
"0110ACG","Gachie",-1.181385845,36.72755509999,0,"NULL",1,"10114110","10000114011","114R"
"0110AEA","Shell Banana",-1.175848246,36.75952971,0,"NULL",1,"10106110","10300106011","106"
"0110AGK","Aga Khan Academy",-1.266404986,36.82319462,0,"NULL",6,"10106110 10107110 10114110 10116110 1011A110 1011F110","10300106011 10400010711 10000114011 10000116011 10100011A11 10300011F11","106 107 114R 116 11A 11B"
"0110AIG","Gacharaini",-1.201715469,36.76474392,0,"NULL",1,"10107110","10400010711","107"
"0110AOA","Mwambao",-1.256713003,36.82633013,0,"NULL",1,"10114110","10000114011","114R"
"0110AOH","Mama Shop",-1.1517528,36.93119645,0,"NULL",1,"1107D110","10000107D11","107D"
"0110APS","Aga Khan Hospital Stage",-1.26198,36.82269999999,0,"NULL",1,"1011A110","10100011A11","11A"
"0110APT","Aga Khan Hospital Stage 2",-1.26277,36.82466999999,0,"NULL",1,"1011A110","10100011A11","11A"
"0110ASP","Stima Plaza",-1.270036697,36.82055532999,0,"NULL",2,"10107110 1011A110","10400010711 10100011A11","107 11A"
"0110AST","Ambassadors Stage",-1.19864,36.75634,0,"NULL",2,"10107110 10114110","10400010711 10000114011","107 114R"
"0110AUK","Karura",-1.24724865,36.81577562999,0,"NULL",1,"10114110","10000114011","114R"
"0110BAA","Banana Terminus",-1.174235,36.75876499999,0,"NULL",2,"10106110 10116110","10300106011 10000116011","106 116"
"0110BDO","Boda",-1.210380524,36.78958386,0,"NULL",1,"1011F110","10300011F11","11B"
"0110BLV","6th Parklands Avenue/Regal House/Kobil",-1.257905424,36.82689606999,0,"NULL",1,"1011F110","10300011F11","11B"
"0110BNI","Kobil banana",-1.174563825,36.75899326999,0,"NULL",1,"10106110","10300106011","106"
"0110BUK","Kabuku Junction Stage",-1.150767,36.668272,0,"NULL",1,"10114110","10000114011","114R"
"0110CEJ","Gacharage Junction",-1.20033,36.76062,0,"NULL",1,"10107110","10400010711","107"
"0110COH","Gacharage Junction - Gachiraini Stage",-1.200470924,36.76059455,0,"NULL",1,"10114110","10000114011","114R"
"0110CUT","Karura Community Chapel",-1.215755707,36.79781555999,0,"NULL",1,"10107110","10400010711","107"
"0110DAS","Ridgeways Girls",-1.214993119,36.86438798999,0,"NULL",1,"1107D110","10000107D11","107D"
"0110FRM","Muguku Farm",-1.17646,36.718384,0,"NULL",1,"10114110","10000114011","114R"
"0110FSA","Karura Forest/Belgian Embassy",-1.248370528,36.81659101999,0,"NULL",1,"1011F110","10300011F11","11B"
"0110GAC","Gacharage",-1.192978352,36.74807935999,0,"NULL",1,"10114110","10000114011","114R"
"0110GTH","Gathanga Stage/Kiambea",-1.198999,36.78443999999,0,"NULL",2,"10106110 10116110","10300106011 10000116011","106 116"
"0110HHH","JamhurI High",-1.272161007,36.82225584999,0,"NULL",1,"10106110","10300106011","106"
"0110HUN","5th parklands avenue",-1.260938644,36.82585001,0,"NULL",1,"10106110","10300106011","106"
"0110IDR","City park drive",-1.257162094,36.82656347999,0,"NULL",1,"10106110","10300106011","106"
"0110ILU","Limuru Terminus",-1.108075708,36.64339274,0,"NULL",1,"10116110","10000116011","116"
"0110IRT","Ngara",-1.274190277,36.82365864999,0,"0003NGR",9,"10106110 10107110 10114110 10114111 10116110 1011A110 1011F110 22930110 22930111","10300106011 10400010711 10000114011 10000114011 10000116011 10100011A11 10300011F11 20701293011 20701293011","106 107 114R 114R 116 11A 11B 29/30 29/30"
"0110ISR","Ruiru Prisons",-1.151870817,36.92952542999,0,"NULL",1,"1107D110","10000107D11","107D"
"0110KAU","Kianjogu Stage",-1.180979,36.727015,0,"NULL",1,"10114110","10000114011","114R"
"0110KGQ","Highridge/Kwa Mosque/Mwisho",-1.256852478,36.81073576,0,"NULL",1,"1011A110","10100011A11","11A"
"0110KKB","Garage",-1.222414,36.78096399999,0,"NULL",1,"10108110","10200010811","108"
"0110KRS","Karura Stage",-1.19437,36.73198,0,"NULL",1,"10107110","10400010711","107"
"0110KSL","Nish Raaj Estate/Kusi Lane",-1.25864,36.81485,0,"NULL",1,"1011A110","10100011A11","11A"
"0110LAR","Rosslyn Riviera",-1.215369433,36.79668098999,0,"NULL",1,"10114110","10000114011","114R"
"0110LCM","Decimal",-1.203015178,36.76999301,0,"NULL",1,"10114110","10000114011","114R"
"0110LHL","Full Gospel Church",-1.151017874,36.93746208999,0,"NULL",1,"1107D110","10000107D11","107D"
"0110LIG","Kobil Gigiri",-1.239215791,36.81125343,0,"NULL",1,"1011F110","10300011F11","11B"
"0110LJA","Joyland",-1.204860538,36.77656978,0,"NULL",1,"10114110","10000114011","114R"
"0110MKT","Makutano",-1.159421,36.74363999999,0,"NULL",1,"10116110","10000116011","116"
"0110MTS","Muthaiga Shopping Centre",-1.250537038,36.81984185999,0,"NULL",5,"10106110 10107110 10114110 10116110 1011F110","10300106011 10400010711 10000114011 10000116011 10300011F11","106 107 114R 116 11B"
"0110MYA","City Park Market",-1.261573166,36.82576149999,0,"NULL",1,"1011F110","10300011F11","11B"
"0110NGP","Ndenderu Redeemed Gospel",-1.19222,36.74441999999,0,"NULL",1,"10107110","10400010711","107"
"0110NKT","Nakumatt Stage",-1.26018,36.81855,0,"NULL",1,"1011A110","10100011A11","11A"
"0110NSG","Ndenderu Stage",-1.1926,36.74685,0,"NULL",2,"10107110 10114110","10400010711 10000114011","107 114R"
"0110OLB","Blue Kiosk",-1.154766083,36.67294264,0,"NULL",1,"10114110","10000114011","114R"
"0110OVL","3rd Parklands Avenue/Aga Kan Hospital Junction",-1.2632415,36.82506412,0,"NULL",1,"10114110","10000114011","114R"
"0110PBS","Bypass",-1.204483509,36.78551495,0,"NULL",1,"10106110","10300106011","106"
"0110PMA","Stima Plaza",-1.269993782,36.82060360999,0,"NULL",1,"10106110","10300106011","106"
"0110PMT","Pm Flats",-1.20375,36.77257,0,"NULL",2,"10107110 10114110","10400010711 10000114011","107 114R"
"0110/PU","UNEP/KTTC",-1.238447195,36.81041658,0,"NULL",1,"10108110","10200010811","108"
"0110R/B","Belgian Embassy/Karura",-1.246905327,36.81568443999,0,"NULL",2,"10106110 10107110","10300106011 10400010711","106 107"
"0110REU","Rwenu",-1.194505692,36.73557757999,0,"NULL",1,"10107110","10400010711","107"
"0110REV","Two Rivers",-1.212894917,36.79242432,0,"NULL",2,"10107110 10114110","10400010711 10000114011","107 114R"
"0110RID","Windsor Advice",-1.215743423,36.84993624999,0,"NULL",1,"1107D110","10000107D11","107D"
"0110RIS","Two Rivers",-1.211571425,36.79079086,0,"NULL",1,"10116110","10000116011","116"
"0110RNO","Rossyln",-1.233918071,36.80209637,0,"NULL",1,"10108110","10200010811","108"
"0110ROA","Wambugu Road",-1.268078685,36.82123929,0,"NULL",1,"1011F110","10300011F11","11B"
"0110ROS","Rosslyn Total",-1.210405827,36.78973137999,0,"NULL",1,"10106110","10300106011","106"
"0110RRS","Two Rivers",-1.214472055,36.79485977,0,"NULL",2,"10106110 1011F110","10300106011 10300011F11","106 11B"
"0110RTC","Ruaka Quickmart",-1.206689805,36.78235799,0,"NULL",1,"1107D110","10000107D11","107D"
"0110RTU","Kobil/Regal house/6th Parklands ave",-1.258020401,36.82704627999,0,"NULL",1,"10106110","10300106011","106"
"0110SAI","Stima Plaza",-1.272611618,36.82100058,0,"NULL",1,"10106110","10300106011","106"
"0110SIH","Gasolina/Gichagi Mwisho",-1.219559079,36.76671803,0,"NULL",1,"10108110","10200010811","108"
"0110SOI","Mimosa",-1.212091684,36.80471419999,0,"NULL",1,"1107D110","10000107D11","107D"
"0110SPU","St. Paul's University Limuru",-1.147694,36.66579399999,0,"NULL",1,"10114110","10000114011","114R"
"0110SRT","Marurui Police Post",-1.214639872,36.86785608999,0,"NULL",1,"1107D110","10000107D11","107D"
"0110SSA","Canadian embassy",-1.241283417,36.81334018999,0,"NULL",1,"10106110","10300106011","106"
"0110TAA","Stima Plaza",-1.269752383,36.82057946999,0,"NULL",1,"1011F110","10300011F11","11B"
"0110TOH","Githogoro",-1.216533512,36.82539134999,0,"NULL",1,"1107D110","10000107D11","107D"
"0110TPA","3rd Parklands Avenue/Aga Kan Hospital Junction",-1.263229251,36.82507753,0,"NULL",5,"10106110 10107110 10116110 1011A110 1011F110","10300106011 10400010711 10000116011 10100011A11 10300011F11","106 107 116 11A 11B"
"0110TUQ","Equity",-1.205160946,36.77773385999,0,"NULL",1,"10114110","10000114011","114R"
"0110TVM","Traveller's View Muchatha",-1.188491,36.771639,0,"NULL",2,"10106110 10116110","10300106011 10000116011","106 116"
"0110UMI","Mulima",-1.220399737,36.76975964999,0,"NULL",1,"10108110","10200010811","108"
"0110UMK","Mkulima supermarket",-1.175078809,36.75925076,0,"NULL",1,"10106110","10300106011","106"
"0110UNA","UNEP/KTTC",-1.238032579,36.80994986999,0,"NULL",5,"10106110 10107110 10114110 10116110 1011F110","10300106011 10400010711 10000114011 10000116011 10300011F11","106 107 114R 116 11B"
"0110VKS","2nd Parklands Avenue",-1.264834642,36.82441235,0,"NULL",1,"1011A110","10100011A11","11A"
"0110VMT","Village Market",-1.23006,36.80398999999,0,"NULL",5,"10106110 10107110 10114110 10116110 1011F110","10300106011 10400010711 10000114011 10000116011 10300011F11","106 107 114R 116 11B"
"0110WAM","Kwa Jeki",-1.194574,36.779445,0,"NULL",2,"10106110 10116110","10300106011 10000116011","106 116"
"0110WOJ","Maziwa Junction",-1.193992227,36.90453798,0,"NULL",1,"1107D110","10000107D11","107D"
"0110WRS","Two Rivers",-1.208241641,36.79728448,0,"NULL",1,"1107D110","10000107D11","107D"
"0110YIL","OiLibya/2nd Parklands Avenue",-1.26424849,36.82468056999,0,"NULL",2,"10107110 1011F110","10400010711 10300011F11","107 11B"
"0110YSP","City Park/5th Parklands Avenue",-1.261085039,36.82602704,0,"NULL",1,"10107110","10400010711","107"
"01114IA","44 Githurai",-1.19544062,36.90279721999,0,"NULL",1,"1107D111","10000107D11","107D"
"0111A26","Lane 26",-1.202558398,36.76809669,0,"NULL",1,"10114111","10000114011","114R"
"0111AAR","Ruaka",-1.207579493,36.78627132999,0,"NULL",1,"10106111","10300106011","106"
"0111ACP","Agha khan hospital junction/ 3rd parklands ave",-1.261894941,36.82537794,0,"NULL",1,"10106111","10300106011","106"
"0111AES","Rosslyn Valley",-1.223200679,36.80257916,0,"NULL",1,"10106111","10300106011","106"
"0111AIT","Muthaiga Mini Market",-1.250233166,36.82078838,0,"NULL",1,"10107111","10400010711","107"
"0111AKA","Kwa Nyaga",-1.168398589,36.69651657,0,"NULL",1,"10114111","10000114011","114R"
"0111AKS","Aga Khan Hospital Stage",-1.26237,36.82368999999,0,"NULL",1,"1011A111","10100011A11","11A"
"0111ALA","Sahala",-1.20683468,36.79277837,0,"NULL",1,"1107D111","10000107D11","107D"
"0111AMB","Ambassadors Stage",-1.19859,36.75618999999,0,"NULL",2,"10107111 10114111","10400010711 10000114011","107 114R"
"0111AMK","Kwa Mbao",-1.170485347,36.70516401999,0,"NULL",1,"10114111","10000114011","114R"
"0111ARD","Kwa Daktari",-1.184670389,36.73256813999,0,"NULL",1,"10114111","10000114011","114R"
"0111ATA","Total City Park",-1.259304017,36.82673781999,0,"NULL",1,"10106111","10300106011","106"
"0111AWM","Maziwa",-1.193209022,36.90509319,0,"NULL",1,"1107D111","10000107D11","107D"
"0111AXM","Maxx",-1.181895465,36.72843486,0,"NULL",1,"10114111","10000114011","114R"
"0111AYS","Gitambaya Police Post",-1.149767965,36.94896608999,0,"NULL",1,"1107D111","10000107D11","107D"
"0111BAA","Banana Terminus",-1.174015,36.75883999999,0,"NULL",1,"10116111","10000116011","116"
"0111BAG","ACK Thibigwa",-1.181042522,36.76208585999,0,"NULL",1,"10106111","10300106011","106"
"0111BEK","Belgian Embassy/Karura",-1.24701,36.8156,0,"NULL",5,"10106111 10107111 10114111 10116111 1011F111","10300106011 10400010711 10000114011 10000116011 10300011F11","106 107 114R 116 11B"
"0111BPY","Bypass",-1.205770969,36.77934050999,0,"NULL",2,"10107111 10114111","10400010711 10000114011","107 114R"
"0111BUK","Kabuku Stage",-1.154742,36.674973,0,"NULL",1,"10114111","10000114011","114R"
"0111CEP","PCEA",-1.189026296,36.7375356,0,"NULL",1,"10114111","10000114011","114R"
"0111CNT","Container",-1.197221607,36.89955175,0,"NULL",1,"1107D111","10000107D11","107D"
"0111CRA","Car Wash",-1.21710754,36.77706063,0,"NULL",1,"10108111","10200010811","108"
"0111EDH","The Dam",-1.170045465,36.70123725999,0,"NULL",1,"10114111","10000114011","114R"
"0111EED","Ndenderu",-1.192216605,36.74356251999,0,"NULL",1,"10114111","10000114011","114R"
"0111ENP","Dispenser",-1.190345943,36.73904835999,0,"NULL",1,"10114111","10000114011","114R"
"0111EYE","Membley",-1.156393021,36.92510515,0,"NULL",1,"1107D111","10000107D11","107D"
"0111FRM","Muguku Farm/GD",-1.176554,36.718575,0,"NULL",1,"10114111","10000114011","114R"
"0111GIE","Sovereign",-1.16958949,36.70015901,0,"NULL",1,"10114111","10000114011","114R"
"0111GIM","Muthaiga Mini Market",-1.2501508,36.82074845,0,"NULL",1,"10106111","10300106011","106"
"0111HDE","Shade",-1.193895668,36.74959213,0,"NULL",1,"10114111","10000114011","114R"
"0111HRT","Mothero",-1.166445136,36.69361710999,0,"NULL",1,"10114111","10000114011","114R"
"0111IAC","Pa Machiri",-1.172893971,36.71205728999,0,"NULL",1,"10114111","10000114011","114R"
"0111ICT","Quickmart",-1.206678271,36.78331017,0,"NULL",2,"10114111 1107D111","10000114011 10000107D11","114R 107D"
"0111IGA","Gacharaini",-1.201393604,36.76348329,0,"NULL",1,"10107111","10400010711","107"
"0111IGK","Kobil Gigiri",-1.23922956,36.81144118,0,"NULL",1,"1011F111","10300011F11","11B"
"0111IME","Milele",-1.201035708,36.76265984999,0,"NULL",1,"10114111","10000114011","114R"
"0111ISE","Site",-1.178182483,36.72254205,0,"NULL",1,"10114111","10000114011","114R"
"0111JEK","Kwa Njoki",-1.194099,36.778615,0,"NULL",2,"10106111 10116111","10300106011 10000116011","106 116"
"0111JM","JM",-1.188322037,36.90638065,0,"NULL",1,"1107D111","10000107D11","107D"
"0111KAN","Aga Khan",-1.262254447,36.82536988999,0,"NULL",1,"10116111","10000116011","116"
"0111KAU","Kianjogu Stage",-1.181209,36.72720799999,0,"NULL",1,"10114111","10000114011","114R"
"0111KEA","Kiambea",-1.198614,36.784122,0,"NULL",2,"10106111 10116111","10300106011 10000116011","106 116"
"0111KIV","Kibutu Stage/Bread of Life",-1.188314,36.771234,0,"NULL",2,"10106111 10116111","10300106011 10000116011","106 116"
"0111KNA","Kona",-1.220945,36.778584,0,"NULL",1,"10108111","10200010811","108"
"0111KNE","Aga Khan Entrance",-1.261342496,36.82584195999,0,"NULL",1,"1011F111","10300011F11","11B"
"0111KOG","Kobil Gigiri",-1.239407301,36.81168795,0,"NULL",1,"10106111","10300106011","106"
"0111KRU","Karura/Runda",-1.22082,36.80136,0,"NULL",5,"10106111 10107111 10114111 10116111 1011F111","10300106011 10400010711 10000114011 10000116011 10300011F11","106 107 114R 116 11B"
"0111LIS","Emsoil",-1.195987791,36.75258547,0,"NULL",1,"10114111","10000114011","114R"
"0111LON","Joyland",-1.204928756,36.77661002,0,"NULL",2,"10107111 10114111","10400010711 10000114011","107 114R"
"0111LSO","Chantilly School",-1.180808008,36.76191150999,0,"NULL",1,"10116111","10000116011","116"
"0111MAO","Mwambao",-1.256381929,36.82609140999,0,"NULL",1,"10114111","10000114011","114R"
"0111MCM","Mirai Court/Mifereji",-1.20322,36.77046,0,"NULL",2,"10107111 10114111","10400010711 10000114011","107 114R"
"0111MIF","Mfereji",-1.203888774,36.77303194999,0,"NULL",1,"10114111","10000114011","114R"
"0111MKT","Makutano",-1.159354,36.743484,0,"NULL",1,"10116111","10000116011","116"
"0111MME","Muthaiga Mini Market",-1.250145435,36.82078599999,0,"NULL",1,"1011F111","10300011F11","11B"
"0111MRE","Muthaiga Mini Market",-1.25019908,36.82072966999,0,"NULL",1,"10114111","10000114011","114R"
"0111NDS","Ndenderu Stage/Shell",-1.19303,36.74801999999,0,"NULL",2,"10107111 10114111","10400010711 10000114011","107 114R"
"0111NKM","Nakumatt/Post Office",-1.26012,36.81824999999,0,"NULL",1,"1011A111","10100011A11","11A"
"0111NMO","Ngomongo",-1.200252503,36.89471303999,0,"NULL",1,"1107D111","10000107D11","107D"
"0111NOI","Kia Njogu",-1.183815926,36.73128337,0,"NULL",1,"10114111","10000114011","114R"
"0111NTA","Muthaiga Mini Market",-1.250145435,36.82079136,0,"NULL",1,"10116111","10000116011","116"
"0111.OJ","O.J.",-1.153206557,36.92035228,0,"NULL",1,"1107D111","10000107D11","107D"
"0111OJC","Jowac",-1.193359226,36.74874991,0,"NULL",1,"10114111","10000114011","114R"
"0111OLB","OiLibya/2nd Parklands Avenue",-1.26469,36.82432,0,"NULL",6,"10106111 10107111 10114111 10116111 1011A111 1011F111","10300106011 10400010711 10000114011 10000116011 10100011A11 10300011F11","106 107 114R 116 11A 11B"
"0111OLS","Total Rosslyn",-1.21055907,36.78952754,0,"NULL",1,"10106111","10300106011","106"
"0111RAU","Quarry",-1.207043856,36.88213884999,0,"NULL",1,"1107D111","10000107D11","107D"
"0111RHK","6th Parklands Avenue/Regal House/Kobil",-1.25777,36.82690999999,0,"NULL",5,"10106111 10107111 10114111 10116111 1011F111","10300106011 10400010711 10000114011 10000116011 10300011F11","106 107 114R 116 11B"
"0111RHR","Redhill Road/Polish Embassy",-1.234529614,36.80346429,0,"NULL",5,"10106111 10107111 10114111 10116111 1011F111","10300106011 10400010711 10000114011 10000116011 10300011F11","106 107 114R 116 11B"
"0111RNE","Rwenu",-1.193967312,36.74329042,0,"NULL",1,"10107111","10400010711","107"
"0111RNI","Container",-1.204575419,36.77539228999,0,"NULL",1,"10114111","10000114011","114R"
"0111ROT","Two Rivers",-1.214563251,36.79482222,0,"NULL",1,"10114111","10000114011","114R"
"0111RPS","Ruiru Prisons",-1.151827,36.92929199999,0,"NULL",1,"1107D111","10000107D11","107D"
"0111RRY","Fairy Flowers",-1.164890259,36.69146865999,0,"NULL",1,"10114111","10000114011","114R"
"0111RST","Ruaka Stage/Tuskys",-1.207146,36.78587699999,0,"NULL",2,"10107111 10114111","10400010711 10000114011","107 114R"
"0111SAR","Carwash",-1.20097053,36.78517698999,0,"NULL",1,"10106111","10300106011","106"
"0111SNH","Shell Banana",-1.175822139,36.75949216,0,"NULL",1,"10106111","10300106011","106"
"0111SPS","Stima Plaza Stage",-1.2696,36.82039999999,0,"NULL",5,"10106111 10107111 10114111 10116111 1011A111","10300106011 10400010711 10000114011 10000116011 10100011A11","106 107 114R 116 11A"
"0111SPU","St. Paul's University Limuru",-1.148257,36.666204,0,"NULL",1,"10114111","10000114011","114R"
"0111TNN","Aga Khan Entrance",-1.26143825,36.82573199,0,"NULL",1,"10114111","10000114011","114R"
"0111TOE","Two Rivers",-1.214559316,36.79499388,0,"NULL",1,"10106111","10300106011","106"
"0111TRI","Little Servant",-1.186605424,36.76822275,0,"NULL",1,"10106111","10300106011","106"
"0111TRV","Two Rivers",-1.214520335,36.79460764,0,"NULL",1,"1011F111","10300011F11","11B"
"0111TUN","UNEP/Gigiri/KTTC",-1.238681674,36.81054532999,0,"NULL",6,"10106111 10107111 10108111 10114111 10116111 1011F111","10300106011 10400010711 10200010811 10000114011 10000116011 10300011F11","106 107 108 114R 116 11B"
"0111TVI","Kwa Viti",-1.186836094,36.73504382,0,"NULL",1,"10114111","10000114011","114R"
"0111.UK","K.U.",-1.174814433,36.9143039,0,"NULL",1,"1107D111","10000107D11","107D"
"0111UKG","Kwa Njogu",-1.192592114,36.74655586,0,"NULL",1,"10114111","10000114011","114R"
"0111USA","Kwa Sukuma",-1.178994834,36.72388852,0,"NULL",1,"10114111","10000114011","114R"
"0111VMA","Village Market",-1.22876,36.80443,0,"NULL",5,"10106111 10107111 10114111 10116111 1011F111","10300106011 10400010711 10000114011 10000116011 10300011F11","106 107 114R 116 11B"
"0111VWS","Two Rivers",-1.208490729,36.79807304999,0,"NULL",1,"1107D111","10000107D11","107D"
"0111WNA","Kwa Kiwanja",-1.170839399,36.91703171,0,"NULL",1,"1107D111","10000107D11","107D"
"0111WRB","Kwa Bendera",-1.16908443,36.69846653999,0,"NULL",1,"10114111","10000114011","114R"
"0111YSB","Bypass",-1.204768538,36.78547739999,0,"NULL",1,"10106111","10300106011","106"
"0112LKT","Koja",-1.28127,36.822572,0,"0002KOJ",2,"10116110 10116111","10000116011 10000116011","116 116"
"0112POL","Junction/Poland Embassy",-1.234835,36.80378199999,0,"NULL",2,"10108110 10108111","10200010811 10200010811","108 108"
"0113BAA","Banana Terminus",-1.17383,36.758605,0,"NULL",1,"10106111","10300106011","106"
"0113GCH","Gasolina/Gichagi Mwisho",-1.219641,36.766688,0,"NULL",1,"10108111","10200010811","108"
"0113KAR","Karura Mwisho",-1.19435,36.73203999999,0,"NULL",1,"10107111","10400010711","107"
"0113LMD","Limuru Terminus",-1.108043,36.643534,0,"NULL",3,"10114110 10114111 10116111","10000114011 10000114011 10000116011","114R 114R 116"
"0113RST","Ruaka Stage",-1.20717,36.78571,0,"NULL",1,"1011F111","10300011F11","11B"
"02002IE","Riverside 2",-1.249605149,36.87796533,0,"NULL",1,"20025110","20801002511","25"
"0200AAK","Kwa Wachina",-1.222993612,36.90709734,0,"NULL",1,"2017B110","21000017B11","17B"
"0200ACM","Mwisho wa Chuma",-1.163516968,36.95318073,0,"NULL",1,"20000720","20700145D01","145D"
"0200AKN","Guru Nanak",-1.270181537,36.83269501,0,"NULL",1,"20006110","20702000611","6"
"0200AKO","Mpaka road",-1.264947295,36.80466485,0,"NULL",1,"20023110","20000002311","23W"
"0200APZ","Stima Plaza",-1.269631863,36.82072163,0,"NULL",1,"22930110","20701293011","29/30"
"0200AVS","Naivas",-1.247291565,36.87247752999,0,"NULL",1,"20077110","20101007700","0027"
"0200BBC","Baba Dogo Catho",-1.244169474,36.88507317999,0,"NULL",1,"2025A110","20801025A11","25A"
"0200BDJ","Baba Dogo Junction/Dawa",-1.247259378,36.87438725999,0,"NULL",5,"20025110 20042110 20077110 2025A110 22030110","20801002511 20807042011 20101007700 20801025A11 20800203001","25 42 0027 25A 2030"
"0200BER","Redeemed Ndumberi",-1.152985096,36.80867314,0,"NULL",2,"20120110 20121110","20100012011 20100012111","120 121"
"0200BLN","Balkan Sec School",-1.21242,36.83391999999,0,"NULL",4,"20100110 20120111 20121110 2100A110","20100010011 20100012011 20100012111 20100100A11","100 120 121 100A"
"0200BUL","Bull and Bush",-1.217508,36.89746399999,0,"NULL",2,"20049110 2017B110","21000004911 21000017B11","49 17B"
"0200BWD","Kasarini/Paradise Lost",-1.205964088,36.83213710999,0,"NULL",4,"20100110 20120111 20121110 2100A110","20100010011 20100012011 20100012111 20100100A11","100 120 121 100A"
"0200CRN","Stima",-1.224013,36.90820399999,0,"NULL",3,"20049110 2017B110 2017B120","21000004911 21000017B11 21200017B12","49 17B 17B_2"
"0200DAU","Mwandus",-1.161258459,36.82121515,0,"NULL",1,"20120110","20100012011","120"
"0200DBR","Nduberi Factory",-1.140917,36.80570099999,0,"NULL",1,"20120111","20100012011","120"
"0200DEC","Deliverance Church",-1.241361,36.894047,0,"NULL",1,"2025A110","20801025A11","25A"
"0200DMD","Diamond Flats",-1.20399,36.83301,0,"NULL",3,"20100110 20121110 2100A110","20100010011 20100012111 20100100A11","100 121 100A"
"0200DRU","Muslim Road",-1.27554059,36.83127343999,0,"NULL",1,"20006110","20702000611","6"
"0200EAC","Cinema",-1.252898902,36.89722359,0,"NULL",1,"20042110","20807042011","42"
"0200EBR","Roundabout",-1.15516305,36.92666351999,0,"NULL",1,"20000720","20700145D01","145D"
"0200EEE","Redeemed Ngemwa",-1.117368221,36.8161726,0,"NULL",1,"20120110","20100012011","120"
"0200EIE","Ridgeviews",-1.223405331,36.83767051,0,"NULL",1,"20100110","20100010011","100"
"0200EII","Regional Centre/ICIPE",-1.220014929,36.89401459999,0,"NULL",1,"2017B120","21200017B12","17B_2"
"0200ELH","Shell",-1.267559766,36.83087110999,0,"NULL",1,"22930110","20701293011","29/30"
"0200EMF","KEMREF",-1.241982311,36.8932566,0,"NULL",1,"2025A110","20801025A11","25A"
"0200EUT","Equity",-1.258005023,36.87877535999,0,"NULL",1,"22030110","20800203001","2030"
"0200FHA","Faith Home Academy",-1.25305,36.87865099999,0,"NULL",1,"20042110","20807042011","42"
"0200FRS","St. Francis",-1.226196,36.916057,0,"NULL",3,"20049110 2017B110 2017B120","21000004911 21000017B11 21200017B12","49 17B 17B_2"
"0200GEG","Garage/Riverside",-1.249093333,36.87805166999,0,"NULL",1,"20077110","20101007700","0027"
"0200GIT","Githurai",-1.20447278,36.91680371999,0,"NULL",3,"20044110 20044120 20045110","21100004411 21100004412 20000004511","44G 44Z 45K"
"0200GNA","Ngemwa",-1.12226057,36.81771754999,0,"NULL",1,"20120110","20100012011","120"
"0200GNK","Guru Nanak",-1.269521713,36.83210491999,0,"NULL",10,"20044110 20044120 20045110 20049110 20145110 20237110 2025A110 30046110 3011C110 3046B110","21100004411 21100004412 20000004511 21000004911 20000145011 20000237011 20801025A11 30000004611 30100011C11 30000046B11","44G 44Z 45K 49 145 237 25A 46H 11C 46B"
"0200GPS","Ngemwa Police Post",-1.121695,36.81879299999,0,"NULL",1,"20120111","20100012011","120"
"0200GRG","Garage",-1.231264,36.924453,0,"NULL",2,"2017B110 2017B120","21000017B11 21200017B12","17B 17B_2"
"0200GTO","Githogoro/Kigwa",-1.21866,36.83585999999,0,"NULL",4,"20100110 20120111 20121110 2100A110","20100010011 20100012011 20100012111 20100100A11","100 120 121 100A"
"0200HHR","Shirika House",-1.273122668,36.81620908,0,"NULL",1,"20023110","20000002311","23W"
"0200HML","Garden City/Homeland Inn",-1.230479479,36.87905431,0,"NULL",6,"20044110 20044120 20045110 20045120 20049110 2017B110","21100004411 21100004412 20000004511 20000004512 21000004911 21000017B11","44G 44Z 45K 45G 49 17B"
"0200HTN","Hill stone",-1.252511144,36.88003599999,0,"NULL",1,"20077110","20101007700","0027"
"0200HUN","Hunters",-1.227583,36.91798099999,0,"NULL",3,"20049110 2017B110 2017B120","21000004911 21000017B11 21200017B12","49 17B 17B_2"
"0200IMI","Kamutiini",-1.23051703,36.92298888999,0,"NULL",2,"2017B110 2017B120","21000017B11 21200017B12","17B 17B_2"
"0200IRR","Riverside",-1.248269409,36.87665105,0,"NULL",1,"20042110","20807042011","42"
"0200JIN","Ikinu",-1.100941,36.797296,0,"NULL",1,"20120111","20100012011","120"
"0200KAI","Kwa Kairu",-1.143339,36.966445,0,"NULL",1,"20237110","20000237011","237"
"0200KAW","Kwa Maua",-1.121935844,37.00715661,0,"NULL",1,"20237110","20000237011","237"
"0200KBM","Kariobangi Market Stage",-1.255259,36.878742,0,"NULL",1,"22030110","20800203001","2030"
"0200KCI","Kariobangi Junction",-1.252570152,36.87895238,0,"NULL",1,"20077110","20101007700","0027"
"0200KEI","KIE/Pioneer",-1.272531152,36.82724475999,0,"NULL",1,"2025A110","20801025A11","25A"
"0200KEN","Kenafric",-1.246680021,36.88435971999,0,"NULL",1,"2025A110","20801025A11","25A"
"0200KEP","Kenya Power",-1.242946386,36.89085065999,0,"NULL",1,"2025A110","20801025A11","25A"
"0200KJN","Kirigiti/Ruui",-1.17895,36.83747999999,0,"NULL",4,"20100110 20120110 20120111 20121110","20100010011 20100012011 20100012011 20100012111","100 120 120 121"
"0200KS2","KIST",-1.1835,36.83854,0,"NULL",4,"20100110 20120111 20121110 2100A110","20100010011 20100012011 20100012111 20100100A11","100 120 121 100A"
"0200KTJ","Junction",-1.152403,36.919994,0,"NULL",1,"20000720","20700145D01","145D"
"0200KUF","KU Fly Over",-1.180681,36.93908199999,0,"NULL",2,"20145110 20237110","20000145011 20000237011","145 237"
"0200KWH","Bypass/Kwaheri Flyover",-1.215137243,36.83501244,0,"NULL",3,"20100110 20120111 20121110","20100010011 20100012011 20100012111","100 120 121"
"0200LOK","Kobil/K1",-1.267608046,36.81204628999,0,"NULL",1,"20023110","20000002311","23W"
"0200LPO","Allsops",-1.245715,36.86803667,0,"NULL",1,"20077110","20101007700","0027"
"0200MAT","Maternity",-1.223112,36.911889,0,"NULL",3,"20049110 2017B110 2017B120","21000004911 21000017B11 21200017B12","49 17B 17B_2"
"0200MBA","Mamba",-1.269103289,36.84183328999,0,"NULL",1,"20006110","20702000611","6"
"0200MBC","Membley Church",-1.159048,36.93911899999,0,"NULL",1,"20000720","20700145D01","145D"
"0200MGN","2nd Mugumoini Street",-1.218457,36.87400199999,0,"NULL",1,"20053110","20400005311","53"
"0200MNO","Makutano",-1.064306,36.783481,0,"NULL",1,"20120111","20100012011","120"
"0200MOS","Mosque Side Ya Juu",-1.24068,36.89471,0,"NULL",1,"2025A110","20801025A11","25A"
"0200MRR","Marurui",-1.211112,36.874403,0,"NULL",2,"20053110 20053111","20400005311 20400005311","53 53"
"0200MSH","Mushroom",-1.19579,36.83836,0,"NULL",5,"20100110 20120110 20120111 20121110 2100A110","20100010011 20100012011 20100012011 20100012111 20100100A11","100 120 120 121 100A"
"0200MTE","Muthaiga Golf Club Entrance",-1.25774,36.84291999999,0,"NULL",2,"20100110 20121110","20100010011 20100012111","100 121"
"0200NEH","Neighbours",-1.227277,36.87070899999,0,"NULL",1,"20053110","20400005311","53"
"0200NES","Corner",-1.217567,36.89802699999,0,"NULL",3,"20049110 2017B110 2017B120","21000004911 21000017B11 21200017B12","49 17B 17B_2"
"0200NFR","Ngorofani",-1.22535789,36.91485,0,"NULL",1,"2017B110","21000017B11","17B"
"0200NGN","Flyover Pangani",-1.266488333,36.83463167,0,"NULL",1,"20077110","20101007700","0027"
"0200NHL","Towngate Chapel",-1.15470457,36.81256771,0,"NULL",1,"20120110","20100012011","120"
"0200NYT","Nyati Drive",-1.221369,36.872925,0,"NULL",1,"20053110","20400005311","53"
"0200OIC","Ruaraka Police Post/Baba Dogo Catho",-1.244187087,36.88379376999,0,"NULL",1,"20025110","20801002511","25"
"0200OTO","JCL Motors",-1.23544845,36.84368401999,0,"NULL",3,"20100110 20120110 2100A110","20100010011 20100012011 20100100A11","100 120 100A"
"0200RAW","Kware/Kahawa Sukari",-1.1890769,36.93116426,0,"NULL",1,"20237110","20000237011","237"
"0200RDS","Ridgeway Springs",-1.22895062,36.84054315,0,"NULL",4,"20100110 20120111 20121110 2100A110","20100010011 20100012011 20100012111 20100100A11","100 120 121 100A"
"0200RER","Riverside",-1.243933439,36.88097477,0,"NULL",1,"20025110","20801002511","25"
"0200RGC","Regional/ICIPE",-1.220023,36.89412699999,0,"NULL",2,"20049110 2017B110","21000004911 21000017B11","49 17B"
"0200RIE","Riverside",-1.246434778,36.88011913999,0,"NULL",1,"2025A110","20801025A11","25A"
"0200RIL","Kona Kwa Rail",-1.208219,36.92232899999,0,"NULL",1,"20045130","20000004513","45P"
"0200RKN","Kona",-1.225876,36.874215,0,"NULL",1,"20053110","20400005311","53"
"0200RND","Runda Junction",-1.22171,36.83606,0,"NULL",4,"20100110 20120111 20121110 2100A110","20100010011 20100012011 20100012111 20100100A11","100 120 121 100A"
"0200ROC","Rock City",-1.23795,36.84398,0,"NULL",4,"20100110 20120111 20121110 2100A110","20100010011 20100012011 20100012111 20100100A11","100 120 121 100A"
"0200RST","Roasters",-1.233360171,36.87278866999,0,"NULL",1,"20053110","20400005311","53"
"0200RTI","Itara",-1.185209155,36.8388319,0,"NULL",3,"20100110 20120110 20121110","20100010011 20100012011 20100012111","100 120 121"
"0200RUK","Ruaraka Academy",-1.214869,36.876151,0,"NULL",1,"20053110","20400005311","53"
"0200SAK","Samaki",-1.243772507,36.87851249999,0,"NULL",1,"20025110","20801002511","25"
"0200SAN","SDA Ikinu",-1.102948665,36.79969311,0,"NULL",1,"20120110","20100012011","120"
"0200SHK","Shark's Palace",-1.24067,36.84427,0,"NULL",4,"20100110 20120111 20121110 2100A110","20100010011 20100012011 20100012111 20100100A11","100 120 121 100A"
"0200SHL","Shell",-1.235088,36.87316899999,0,"NULL",1,"20043110","20901043011","43"
"0200SHP","Shell/Kariobangi Catholic Church",-1.256700754,36.87869488999,0,"NULL",2,"20042110 22030110","20807042011 20800203001","42 2030"
"0200SKU","Tuskys",-1.0402641,37.07185953999,0,"NULL",1,"20237110","20000237011","237"
"0200SPH","Super Highway",-1.164448857,36.95673107999,0,"NULL",1,"20000720","20700145D01","145D"
"0200SRA","Naivas Supermarket",-1.247506142,36.87264918999,0,"NULL",1,"20025110","20801002511","25"
"0200STD","Stadium",-1.221633554,36.89004599999,0,"NULL",6,"20044120 20045110 20045120 20049110 2017B110 20237110","21100004412 20000004511 20000004512 21000004911 21000017B11 20000237011","44Z 45K 45G 49 17B 237"
"0200STM","Steam Drive",-1.222789,36.872219,0,"NULL",1,"20053110","20400005311","53"
"0200STR","Kwa Ng'ethe/Five Star",-1.18981,36.83959,0,"NULL",3,"20120111 20121110 2100A110","20100012011 20100012111 20100100A11","120 121 100A"
"0200TDS","Seasons",-1.218752,36.902593,0,"NULL",2,"20049110 2017B110","21000004911 21000017B11","49 17B"
"0200TFC","Perfection",-1.240324706,36.89570278,0,"NULL",1,"2025A110","20801025A11","25A"
"0200TKL","Total Kiambu",-1.175120205,36.82907671,0,"NULL",2,"20100110 20120110","20100010011 20100012011","100 120"
"0200TND","Thindigwa",-1.19987,36.83525,0,"NULL",4,"20100110 20120111 20121110 2100A110","20100010011 20100012011 20100012111 20100100A11","100 120 121 100A"
"0200TSB","Booster",-1.159456014,36.82005644,0,"NULL",1,"20120110","20100012011","120"
"0200TSO","Posta",-1.276704669,36.82708651,0,"NULL",1,"20006110","20702000611","6"
"0200TSS","TSS Petrol Station/Blue Hut Hotel",-1.277,36.83091,0,"NULL",1,"20100110","20100010011","100"
"0200UET","Equity",-1.218058347,36.89997339,0,"NULL",1,"2017B110","21000017B11","17B"
"0200URA","Githurai",-1.203685731,36.91733210999,0,"NULL",1,"20237110","20000237011","237"
"0200URD","Red Ruby",-1.270240545,36.81308001,0,"NULL",1,"20023110","20000002311","23W"
"0200WAN","Dawa Pharmaceuticals",-1.246853203,36.87506049999,0,"NULL",1,"20025110","20801002511","25"
"0200WJY","Wanderjoy",-1.23132,36.84252,0,"NULL",4,"20100110 20120111 20121110 2100A110","20100010011 20100012011 20100012111 20100100A11","100 120 121 100A"
"0200WKU","Kwa Mafuta",-1.228705287,36.91972089,0,"NULL",1,"2017B120","21200017B12","17B_2"
"02016EA","36Stage",-1.261315674,36.88658594999,0,"NULL",1,"20042111","20807042011","42"
"0201AGH","Aga Khan Hospital",-1.268924,36.809952,0,"NULL",1,"20023111","20000002311","23W"
"0201AIK","Kariobangi Mwisho",-1.253018333,36.88480332999,0,"NULL",1,"20027111","20101007700","0027"
"0201AIP","Aipcea",-1.11975,36.819057,0,"NULL",1,"20120110","20100012011","120"
"0201AIS","AIC Lucky Summer",-1.240432,36.895398,0,"NULL",1,"2025A111","20801025A11","25A"
"0201ALP","Allsops",-1.245253086,36.86786413,0,"NULL",1,"2025A111","20801025A11","25A"
"0201ALS","Allsops",-1.244512796,36.86686635,0,"NULL",3,"20044121 20045121 20237111","21100004412 20000004512 20000237011","44Z 45G 237"
"0201AMC","Cinema",-1.250704855,36.90486788999,0,"NULL",1,"20042111","20807042011","42"
"0201ARI","Kwa Bridge",-1.121764183,37.00636268,0,"NULL",1,"20237111","20000237011","237"
"0201ARS","Car Wash",-1.232335567,36.87308371,0,"NULL",1,"20053111","20400005311","53"
"0201ASP","Allsops",-1.24517262,36.86789632,0,"NULL",1,"22930111","20701293011","29/30"
"0201ATB","Kariobangi catholic church/ Kanisani",-1.257166667,36.87906499999,0,"NULL",1,"20027111","20101007700","0027"
"0201BHC","Beta  Health Care",-1.062916517,36.78296685,0,"NULL",2,"20120110 20120111","20100012011 20100012011","120 120"
"0201BPC","The Baptist Chapel",-1.241702,36.89361799999,0,"NULL",1,"2025A111","20801025A11","25A"
"0201BRA","Barua",-1.19333,36.83991,0,"NULL",4,"20100111 20120111 20121111 2100A111","20100010011 20100012011 20100012111 20100100A11","100 120 121 100A"
"0201CAL","Caltexdn/Equity",-1.268018,36.83362799999,0,"NULL",1,"20006111","20702000611","6"
"0201CIA","AIC Church",-1.256825656,36.89734160999,0,"NULL",1,"20042111","20807042011","42"
"0201CIT","Police Post",-1.2441549,36.88429534,0,"NULL",1,"20025111","20801002511","25"
"0201CJU","Ruiru Road Junction",-1.148968667,36.95689469999,0,"NULL",1,"20000721","20700145D01","145D"
"0201CNA","Cabanas",-1.329994798,36.89034640999,0,"NULL",1,"20039111","20104003910","0039"
"0201CON","Corner",-1.247130632,36.87430679999,0,"NULL",2,"20025111 2025A111","20801002511 20801025A11","25 25A"
"0201DAW","Naivas/Dawa Pharmacutical",-1.247043,36.87322499999,0,"NULL",2,"20042111 22030111","20807042011 20800203001","42 2030"
"0201DBR","Ndumberi Factory",-1.140974,36.805712,0,"NULL",1,"20120110","20100012011","120"
"0201DIA","KIE/Desai",-1.271711916,36.82795823,0,"NULL",1,"20145111","20000145011","145"
"0201DNK","Danamac's Flats",-1.21821,36.900913,0,"NULL",3,"20049111 2017B111 2017B121","21000004911 21000017B11 21200017B12","49 17B 17B_2"
"0201DNO","Rounda",-1.26219011,36.87874853999,0,"NULL",1,"20027111","20101007700","0027"
"0201DUA","Ruiru Road Junction",-1.1490798,36.95702612,0,"NULL",1,"20145111","20000145011","145"
"0201DWE","Weigh Bridge",-1.129483581,36.98738872999,0,"NULL",1,"20237111","20000237011","237"
"0201ECH","Dawa Pharmaceutical",-1.247130632,36.87301397,0,"NULL",1,"2025A111","20801025A11","25A"
"0201ENL","Hill stone",-1.252511667,36.88005499999,0,"NULL",1,"20027111","20101007700","0027"
"0201EQT","Equity",-1.217932105,36.89985751999,0,"NULL",1,"20049111","21000004911","49"
"0201EVR","Evergreen",-1.2106,36.83312999999,0,"NULL",3,"20120110 20121111 2100A111","20100012011 20100012111 20100100A11","120 121 100A"
"0201FM","FM",-1.269269586,36.84068530999,0,"NULL",1,"20006111","20702000611","6"
"0201GIT","Githurai",-1.203684,36.916758,0,"NULL",1,"20044211","21100004421","44K"
"0201GRD","Equity",-1.217937,36.89985699999,0,"NULL",2,"2017B111 2017B121","21000017B11 21200017B12","17B 17B_2"
"0201GRG","Garage",-1.231222,36.92454899999,0,"NULL",2,"2017B111 2017B121","21000017B11 21200017B12","17B 17B_2"
"0201GTC","Gathecha/KSC International Junction",-1.240786,36.887714,0,"NULL",1,"2025A111","20801025A11","25A"
"0201GTJ","Gathanji",-1.089753,36.78226099999,0,"NULL",2,"20120110 20120111","20100012011 20100012011","120 120"
"0201GTO","Githogoro",-1.2186,36.83579,0,"NULL",4,"20100111 20120110 20121111 2100A111","20100010011 20100012011 20100012111 20100100A11","100 120 121 100A"
"0201HML","Roasters/Naivas",-1.233043671,36.87387228,0,"NULL",8,"20044111 20044121 20045111 20045121 20049111 20145111 2017B111 20237111","21100004411 21100004412 20000004511 20000004512 21000004911 20000145011 21000017B11 20000237011","44G 44Z 45K 45G 49 145 17B 237"
"0201HSM","House Of Faith Ministry",-1.240245,36.895997,0,"NULL",1,"2025A111","20801025A11","25A"
"0201IAH","Muthaiga",-1.260555518,36.84327364,0,"NULL",1,"20027111","20101007700","0027"
"0201IES","Desai",-1.27194795,36.82773024,0,"NULL",1,"20237111","20000237011","237"
"0201IIR","Riverside",-1.249303222,36.87765419,0,"NULL",1,"20027111","20101007700","0027"
"0201IKN","Ikinu",-1.099779,36.795763,0,"NULL",1,"20120110","20100012011","120"
"0201I/T","Kariobangi Market Stage/Soko",-1.255205601,36.87902748999,0,"NULL",1,"20042111","20807042011","42"
"0201JAM","Jamaica",-1.074943542,36.78059577999,0,"NULL",2,"20120110 20120111","20100012011 20100012011","120 120"
"0201JNT","Gatitu",-1.043277383,37.07080006999,0,"NULL",1,"20237111","20000237011","237"
"0201KAI","Kwa Kairu",-1.142084,36.966911,0,"NULL",1,"20237111","20000237011","237"
"0201KAM","Kanyama",-1.252580881,36.88219785999,0,"NULL",1,"20027111","20101007700","0027"
"0201KBM","Kariobangi Market Stage/Soko",-1.255236268,36.87908113,0,"NULL",1,"22030111","20800203001","2030"
"0201KBO","Kimbo",-1.132586,36.97448099999,0,"NULL",1,"20237111","20000237011","237"
"0201KCB","KCB Kiambu",-1.172811985,36.82988404999,0,"NULL",2,"20100111 2100A111","20100010011 20100100A11","100 100A"
"0201KCL","K1 Club",-1.268620491,36.81223511999,0,"NULL",1,"20023111","20000002311","23W"
"0201KEE","KEMREF",-1.241980791,36.8933022,0,"NULL",1,"2025A111","20801025A11","25A"
"0201KEP","Kenya Power",-1.242862,36.89083999999,0,"NULL",1,"2025A111","20801025A11","25A"
"0201KFS","Kenya Forestry Service Station/CID",-1.250478029,36.84655665999,0,"NULL",2,"20120110 20121111","20100012011 20100012111","120 121"
"0201KGM","Kiangima",-1.075928,36.786734,0,"NULL",2,"20120110 20120111","20100012011 20100012011","120 120"
"0201KIH","Kihunguro",-1.160286069,36.95838869,0,"NULL",2,"20000721 20237111","20700145D01 20000237011","145D 237"
"0201KJN","Kirigiti Junction",-1.17902,36.83742,0,"NULL",2,"20100111 20121111","20100010011 20100012111","100 121"
"0201KMT","Kamutiini",-1.229538,36.92087399999,0,"NULL",1,"2017B121","21200017B12","17B_2"
"0201KRK","Kariokor",-1.279431,36.83329299999,0,"NULL",13,"20043111 20045121 20077110 20120110 20121111 2017B111 30003111 30007111 30014111 30032111 30046111 3046B111 31862111","20901043011 20000004512 20101007700 20100012011 20100012111 21000017B11 30101000311 30100000711 30800001411 30907003211 30000004611 30000046B11 30600186211","43 45G 0027 120 121 17B 3N 7 14 32D 46H 46B 16/62"
"0201KS2","KIST",-1.18345,36.83847999999,0,"NULL",3,"20120110 20121111 2100A111","20100012011 20100012111 20100100A11","120 121 100A"
"0201KSR","Kasarini/Paradise Lost",-1.20585,36.83200999999,0,"NULL",3,"20100111 20121111 2100A111","20100010011 20100012111 20100100A11","100 121 100A"
"0201KSS","Brentwood Hotel",-1.20461,36.83263999999,0,"NULL",4,"20100111 20120110 20121111 2100A111","20100010011 20100012011 20100012111 20100100A11","100 120 121 100A"
"0201KSU","Kamindi Supermarket",-1.171696186,36.82808160999,0,"NULL",1,"20100111","20100010011","100"
"0201KWH","Bypass/Kwaheri Flyover",-1.21506,36.83494999999,0,"NULL",3,"20100111 20120110 20121111","20100010011 20100012011 20100012111","100 120 121"
"0201MET","Bull & Bush",-1.217444,36.89775999999,0,"NULL",3,"20049111 2017B111 2017B121","21000004911 21000017B11 21200017B12","49 17B 17B_2"
"0201MGN","2nd Mugumoini Street",-1.218296,36.873967,0,"NULL",1,"20053111","20400005311","53"
"0201MJM","Maji Mazuri",-1.23198688,36.92629337,0,"NULL",2,"2017B111 2017B121","21000017B11 21200017B12","17B 17B_2"
"0201MLM","Kwa Mlima",-1.233215332,36.92902386,0,"NULL",2,"2017B111 2017B121","21000017B11 21200017B12","17B 17B_2"
"0201MML","Mwalimu",-1.269843578,36.83098911999,0,"NULL",1,"20006111","20702000611","6"
"0201MNO","Makutano",-1.064754,36.783189,0,"NULL",1,"20120110","20100012011","120"
"0201MOS","Mosque",-1.24057,36.894865,0,"NULL",1,"2025A111","20801025A11","25A"
"0201MRT","Maternity",-1.223037,36.91183,0,"NULL",3,"20049111 2017B111 2017B121","21000004911 21000017B11 21200017B12","49 17B 17B_2"
"0201MSH","Mushroom",-1.19582,36.83822,0,"NULL",3,"20100111 20121111 2100A111","20100010011 20100012111 20100100A11","100 121 100A"
"0201MSQ","Mosque",-1.252661,36.865157,0,"NULL",1,"22930111","20701293011","29/30"
"0201MTR","TRM",-1.219793558,36.89088821,0,"NULL",2,"20045121 20237111","20000004512 20000237011","45G 237"
"0201NAS","Naivas",-1.218873,36.895474,0,"NULL",1,"2017B111","21000017B11","17B"
"0201NBN","Baba Dogo Junction/Dawa",-1.247575879,36.874457,0,"NULL",1,"20027111","20101007700","0027"
"0201NEH","Neighbours",-1.2270087,36.87105596,0,"NULL",1,"20053111","20400005311","53"
"0201NIO","Sokoni",-1.25513,36.87868999999,0,"NULL",1,"20027111","20101007700","0027"
"0201NTR","Naivas Ciata Mall/Ridgeways Mall",-1.22525,36.83883,0,"NULL",2,"20100111 20120110","20100010011 20100012011","100 120"
"0201NVS","Naivas",-1.247559786,36.87267065,0,"NULL",1,"20027111","20101007700","0027"
"0201NYT","Nyati Drive",-1.220956,36.87309599999,0,"NULL",1,"20053111","20400005311","53"
"0201OER","Pioneer",-1.272505885,36.82773292,0,"NULL",1,"20027111","20101007700","0027"
"0201PME","Marie Stopes",-1.269189119,36.84839397999,0,"NULL",1,"20006111","20702000611","6"
"0201PNG","Pangani/Muthaiga Footbridge",-1.264039278,36.83783411999,0,"NULL",8,"20027111 20044111 20044121 20045111 20045121 20120110 20121111 22930111","20101007700 21100004411 21100004412 20000004511 20000004512 20100012011 20100012111 20701293011","0027 44G 44Z 45K 45G 120 121 29/30"
"0201POS","Police Post",-1.121249,36.81935899999,0,"NULL",1,"20120110","20100012011","120"
"0201PPS","Police Post",-1.219857,36.894257,0,"NULL",1,"2017B111","21000017B11","17B"
"0201RAK","Mpaka Road",-1.265068263,36.80462675999,0,"NULL",1,"20023111","20000002311","23W"
"0201RDS","Ridgeway Springs/Total",-1.229122281,36.84055923999,0,"NULL",4,"20100111 20120110 20121111 2100A111","20100010011 20100012011 20100012111 20100100A11","100 120 121 100A"
"0201RET","St Margret",-1.207715,36.92478799999,0,"NULL",1,"20045131","20000004513","45P"
"0201REV","Drive In",-1.250063333,36.86227333,0,"NULL",1,"20027111","20101007700","0027"
"0201RGC","Regional Centre/ICIPE",-1.219975948,36.89407468,0,"NULL",3,"20049111 2017B111 2017B121","21000004911 21000017B11 21200017B12","49 17B 17B_2"
"0201RIL","Kona Kwa Rail",-1.208181,36.92233699999,0,"NULL",1,"20045131","20000004513","45P"
"0201RKN","Kona",-1.225183,36.87391199999,0,"NULL",1,"20053111","20400005311","53"
"0201RND","Runda Junction",-1.22181,36.8361,0,"NULL",4,"20100111 20120110 20121111 2100A111","20100010011 20100012011 20100012111 20100100A11","100 120 121 100A"
"0201RNK","Kiamako Sunflower Primary School",-1.252865,36.87859166999,0,"NULL",1,"20027111","20101007700","0027"
"0201ROC","Rock City",-1.2382,36.84398,0,"NULL",4,"20100111 20120110 20121111 2100A111","20100010011 20100012011 20100012111 20100100A11","100 120 121 100A"
"0201RRP","Safari Park",-1.225190163,36.88523412,0,"NULL",1,"20049111","21000004911","49"
"0201RSB","Roysambu",-1.218377352,36.8924278,0,"NULL",2,"20145111 20237111","20000145011 20000237011","145 237"
"0201RST","Roasters",-1.233597,36.87255199999,0,"NULL",1,"20053111","20400005311","53"
"0201RUK","Ruaraka Academy",-1.214531,36.87617699999,0,"NULL",1,"20053111","20400005311","53"
"0201RYB","Red Ruby",-1.270290255,36.81299042999,0,"NULL",1,"20023111","20000002311","23W"
"0201RZA","Riziki Academy",-1.28067,36.83846599999,0,"NULL",1,"30007111","30100000711","7"
"0201SDP","Pangani Police Post",-1.27023,36.83563999999,0,"NULL",1,"20100111","20100010011","100"
"0201SHL","Shell",-1.23488903,36.87386155,0,"NULL",1,"20043111","20901043011","43"
"0201SHP","Shell Petrol Station/Catholic Church",-1.256545186,36.87905966999,0,"NULL",2,"20042111 22030111","20807042011 20800203001","42 2030"
"0201SPH","Super Highway",-1.164459586,36.95675789999,0,"NULL",2,"20000721 20039111","20700145D01 20104003910","145D 0039"
"0201SSN","Seasons",-1.218747,36.90285,0,"NULL",1,"2017B111","21000017B11","17B"
"0201STM","Steam Drive",-1.22293,36.872273,0,"NULL",1,"20053111","20400005311","53"
"0201SUN","Sunton",-1.228819,36.91979599999,0,"NULL",2,"2017B111 2017B121","21000017B11 21200017B12","17B 17B_2"
"0201TEH","Homeland/Garden City",-1.230849624,36.87760322999,0,"NULL",4,"20044111 20045121 20049111 2017B111","21100004411 20000004512 21000004911 21000017B11","44G 45G 49 17B"
"0201TIN","Kamutiini",-1.230447292,36.92289233,0,"NULL",1,"2017B111","21000017B11","17B"
"0201TIU","Equity",-1.278343333,36.83056667,0,"NULL",2,"20027111 20120111","20101007700 20100012011","0027 120"
"0201TJA","Timba Junior Academy",-1.241243,36.894187,0,"NULL",1,"2025A111","20801025A11","25A"
"0201TKS","Tuskys",-1.041316,37.071367,0,"NULL",1,"20237111","20000237011","237"
"0201UCP","Dawa Pharmaceutical",-1.247148246,36.87301397,0,"NULL",1,"20025111","20801002511","25"
"0201UGC","Muthaiga Golf Club",-1.257732242,36.84297948999,0,"NULL",1,"20100111","20100010011","100"
"0201UOA","Munyu Road",-1.284302205,36.82779998,0,"NULL",1,"20145111","20000145011","145"
"0201URI","Kariobangi Junction",-1.252575517,36.87903820999,0,"NULL",1,"20027111","20101007700","0027"
"0201VRS","Riverside",-1.243918866,36.88077092,0,"NULL",1,"20025111","20801002511","25"
"0201WAA","Kawaa",-1.244587898,36.87559426,0,"NULL",1,"20025111","20801002511","25"
"0201WJY","Wanderjoy",-1.23113,36.84225,0,"NULL",4,"20100111 20120110 20121111 2100A111","20100010011 20100012011 20100012111 20100100A11","100 120 121 100A"
"0201WOA","Kwa DO",-1.219326854,36.90370648999,0,"NULL",3,"20049111 2017B111 2017B121","21000004911 21000017B11 21200017B12","49 17B 17B_2"
"0201YTU","Equity",-1.258245707,36.87878608999,0,"NULL",1,"20027111","20101007700","0027"
"0201YUE","Survey",-1.248853333,36.86336332999,0,"NULL",1,"20027111","20101007700","0027"
"0202LUT","Luthuli Avenue",-1.284831,36.82698599999,0,"NULL",1,"30007111","30100000711","7"
"0202RSB","Roysambu Terminus",-1.217422485,36.89440727,0,"NULL",1,"20044210","21100004421","44K"
"0203SND","Sunton",-1.229503155,36.92081094,0,"NULL",2,"20049110 20049111","21000004911 21000004911","49 49"
"02107SA","Barraks/75",-1.311714381,36.92533045999,0,"NULL",1,"20039110","20104003910","0039"
"0210ABI","Tiba",-1.240081787,36.89640284,0,"NULL",1,"2025A110","20801025A11","25A"
"0210ACO","Karura Close",-1.256085366,36.84340507,0,"NULL",2,"20100110 20120110","20100010011 20100012011","100 120"
"0210AEC","Faith Home Academy",-1.253224611,36.87857151,0,"NULL",1,"22030110","20800203001","2030"
"0210AFY","Fancy",-1.277269453,36.96974783999,0,"NULL",1,"20039110","20104003910","0039"
"0210AIC","China",-1.293882251,36.94319129,0,"NULL",1,"20039110","20104003910","0039"
"0210AIE","Kwa Bridge",-1.249443412,36.87787414,0,"NULL",1,"22030110","20800203001","2030"
"0210AIK","Kasarini",-1.201480955,36.83447867999,0,"NULL",1,"20100110","20100010011","100"
"0210AIT","Tumaini",-1.280199945,36.96515858,0,"NULL",1,"20039110","20104003910","0039"
"0210AKC","KCA",-1.25305447,36.85928106,0,"NULL",1,"20025110","20801002511","25"
"0210AKE","Keza",-1.285972059,36.95495546,0,"NULL",1,"20039110","20104003910","0039"
"0210ALS","Allsops",-1.245896816,36.86659813,0,"NULL",8,"20043110 20044110 20044120 20045110 20045120 20049110 2017B110 20237110","20901043011 21100004411 21100004412 20000004511 20000004512 21000004911 21000017B11 20000237011","43 44G 44Z 45K 45G 49 17B 237"
"0210AMC","Quickmart",-1.169282198,36.96969150999,0,"NULL",1,"20039110","20104003910","0039"
"0210AMJ","Juja Mall",-1.118052006,37.01047181999,0,"NULL",1,"20237110","20000237011","237"
"0210ANI","Naivas",-1.247502297,36.87248825999,0,"NULL",1,"20042110","20807042011","42"
"0210ANR","Thingira",-1.1147933,36.81205272999,0,"NULL",1,"20120110","20100012011","120"
"0210ANT","Aviation",-1.319936514,36.90660058999,0,"NULL",1,"20039110","20104003910","0039"
"0210APB","Bypass",-1.165457368,36.95721387999,0,"NULL",1,"20145110","20000145011","145"
"0210ARA","Barracks/75 Rounda",-1.313516825,36.92287892,0,"NULL",1,"20039110","20104003910","0039"
"0210ARG","Garage",-1.249185205,36.87806456999,0,"NULL",2,"20025110 2025A110","20801002511 20801025A11","25 25A"
"0210ARH","Car Wash",-1.21111545,36.90757959999,0,"NULL",1,"20145110","20000145011","145"
"0210ARI","Raia",-1.108012676,36.80638789999,0,"NULL",1,"20120110","20100012011","120"
"0210ARM","Taj Mall Roundabout",-1.32471621,36.89894557,0,"NULL",1,"20039110","20104003910","0039"
"0210AS3","36Stage",-1.261734098,36.88483715,0,"NULL",1,"20042110","20807042011","42"
"0210ASR","Safari Park",-1.22595343,36.88503832,0,"NULL",4,"20044110 20044120 20045110 20145110","21100004411 21100004412 20000004511 20000145011","44G 44Z 45K 145"
"0210ASV","Naivas",-1.247506142,36.87250435,0,"NULL",1,"22030110","20800203001","2030"
"0210AUI","Utalii",-1.256094575,36.85605704999,0,"NULL",1,"20145110","20000145011","145"
"0210AWR","Kware",-1.189995736,36.93019061999,0,"NULL",1,"20145110","20000145011","145"
"0210AYA","Onyata",-1.267103881,36.98038548,0,"NULL",1,"20039110","20104003910","0039"
"0210BBD","Baba Dogo Terminal",-1.244305,36.887506,0,"NULL",1,"2025A110","20801025A11","25A"
"0210CAH","Pangani Girls' School",-1.270063519,36.83802724,0,"NULL",1,"20006110","20702000611","6"
"0210CAK","KCA",-1.253113478,36.85937226,0,"NULL",1,"20043110","20901043011","43"
"0210CID","KFS/CID",-1.25032,36.84657,0,"NULL",4,"20100110 20120111 20121110 2100A110","20100010011 20100012011 20100012111 20100100A11","100 120 121 100A"
"0210CIJ","Northern Junction",-1.247555137,36.87098621999,0,"NULL",1,"22030110","20800203001","2030"
"0210CKA","KCA",-1.253079772,36.85931861,0,"NULL",1,"20145110","20000145011","145"
"0210CLM","Clay",-1.171357,36.94886499999,0,"NULL",2,"20145110 20237110","20000145011 20000237011","145 237"
"0210CLY","Clay Works",-1.172108,36.947546,0,"NULL",2,"20145110 20237110","20000145011 20000237011","145 237"
"0210CRH","Car Wash",-1.211124659,36.90780222,0,"NULL",1,"20237110","20000237011","237"
"0210CRI","AIPCK Githunguri",-1.058234095,36.78208708999,0,"NULL",1,"20120110","20100012011","120"
"0210DBR","Ndumberi",-1.15149,36.80547899999,0,"NULL",1,"20120111","20100012011","120"
"0210DGU","Ndarugu",-1.081380844,37.04282462999,0,"NULL",1,"20237110","20000237011","237"
"0210DIE","Weigh Bridge",-1.12953338,36.98971956999,0,"NULL",1,"20237110","20000237011","237"
"0210DLO","Homeland Inn",-1.230951548,36.87830865,0,"NULL",1,"20145110","20000145011","145"
"0210DOE","Kenyatta Road",-1.125418872,37.00300186999,0,"NULL",1,"20237110","20000237011","237"
"0210DRV","Drive In",-1.249040365,36.86320782,0,"NULL",9,"20043110 20044110 20044120 20045110 20045120 20049110 2017B110 20237110 2025A110","20901043011 21100004411 21100004412 20000004511 20000004512 21000004911 21000017B11 20000237011 20801025A11","43 44G 44Z 45K 45G 49 17B 237 25A"
"0210EC/","Utawala Junction/ Benedicta",-1.278744668,36.96799904,0,"NULL",1,"20039110","20104003910","0039"
"0210EIW","Kwa Chief",-1.282864541,36.95997386999,0,"NULL",1,"20039110","20104003910","0039"
"0210EKE","Kemsa Depot",-1.316538513,36.92023695,0,"NULL",1,"20039110","20104003910","0039"
"0210EKT","Kanyama",-1.25249505,36.88166142,0,"NULL",1,"20077110","20101007700","0027"
"0210ENE","Odeon",-1.282971829,36.82432382999,0,"0004ODN",2,"20025110 20025111","20801002511 20801002511","25 25"
"0210EOS","Seasons",-1.218774319,36.90265775,0,"NULL",1,"2017B120","21200017B12","17B_2"
"0210EOV","Jehova Witness Ting'ang'a",-1.12778449,36.81349038999,0,"NULL",1,"20120110","20100012011","120"
"0210ERI","Reli",-1.206656813,36.92042469999,0,"NULL",1,"20045130","20000004513","45P"
"0210ERV","Evergreen",-1.211371422,36.83338165,0,"NULL",2,"20121110 2100A110","20100012111 20100100A11","121 100A"
"0210EXL","Lex",-1.247511506,36.87099694999,0,"NULL",2,"20025110 2025A110","20801002511 20801025A11","25 25A"
"0210FAR","Safari Park",-1.225801706,36.88538432,0,"NULL",2,"20045120 20237110","20000004512 20000237011","45G 237"
"0210FBO","Balkan Sec. School/Fourways",-1.212370634,36.83383226,0,"NULL",1,"20120110","20100012011","120"
"0210FIG","Fig Tree",-1.275653243,36.82331263999,0,"NULL",6,"20006110 20025110 20237110 30046110 3011C110 3046B110","20702000611 20801002511 20000237011 30000004611 30100011C11 30000046B11","6 25 237 46H 11C 46B"
"0210FLY","Fly Over",-1.150335073,36.96210623,0,"NULL",2,"20145110 20237110","20000145011 20000237011","145 237"
"0210FNO","Ngorofani",-1.225275993,36.91494225999,0,"NULL",1,"2017B120","21200017B12","17B_2"
"0210GAO","Mlango Kubwa",-1.26747787,36.84358478,0,"NULL",1,"20006110","20702000611","6"
"0210GEN","Engen",-1.180842519,36.98763012999,0,"NULL",1,"20039110","20104003910","0039"
"0210GIT","Githurai",-1.204336,36.916825,0,"NULL",2,"20044210 20237110","21100004421 20000237011","44K 237"
"0210GNN","Pangani",-1.266170508,36.83512508999,0,"NULL",1,"20043110","20901043011","43"
"0210GPN","Shell/Pangani Footbridge",-1.264028549,36.83792531,0,"NULL",2,"20100110 2100A110","20100010011 20100100A11","100 100A"
"0210GRG","Garage Stage",-1.279238,36.84978499999,0,"NULL",1,"30041110","30007004111","41"
"0210HAS","Car Wash",-1.211269498,36.90749644999,0,"NULL",3,"20044110 20044120 20045110","21100004411 21100004412 20000004511","44G 44Z 45K"
"0210HAU","Kahawa Sukari",-1.188561916,36.93168998,0,"NULL",1,"20044110","21100004411","44G"
"0210HAW","Car Wash",-1.211352826,36.90758228,0,"NULL",2,"20044210 20045120","21100004421 20000004512","44K 45G"
"0210HER","Ha Andrew",-1.131444453,36.80510043999,0,"NULL",1,"20120110","20100012011","120"
"0210HFI","Kwa Ng'ethe/Fivestar",-1.189877719,36.83962315,0,"NULL",2,"20100110 20120110","20100010011 20100012011","100 120"
"0210HHE","PCEA Bishop Gathu",-1.092550993,36.78580998999,0,"NULL",1,"20120110","20100012011","120"
"0210HIP","Highpoint",-1.095312238,37.02895224,0,"NULL",1,"20237110","20000237011","237"
"0210HLE","Shell",-1.281759471,36.96203381,0,"NULL",1,"20039110","20104003910","0039"
"0210HUN","Hunters Stage",-1.227159,36.91740399999,0,"NULL",1,"20049110","21000004911","49"
"0210HUT","Githurai",-1.203691095,36.91734284,0,"NULL",1,"20145110","20000145011","145"
"0210HWA","Kahawa",-1.19645834,36.92401885999,0,"NULL",1,"20145110","20000145011","145"
"0210HWD","Kahawa Wendani",-1.195381612,36.92504615,0,"NULL",1,"20145110","20000145011","145"
"0210HWK","Wendani Bus Stop",-1.195385456,36.92515611999,0,"NULL",1,"20237110","20000237011","237"
"0210IEL","Homeland Inn",-1.231017441,36.87831134,0,"NULL",1,"20237110","20000237011","237"
"0210IES","Desai",-1.27242422,36.82760524999,0,"NULL",2,"20044120 20045110","21100004412 20000004511","44Z 45K"
"0210IHW","Kwa Ahindi",-1.17300126,36.82666807999,0,"NULL",1,"20100110","20100010011","100"
"0210IIA","Utalii",-1.25646624,36.85562252999,0,"NULL",1,"20025110","20801002511","25"
"0210IJI","Jikoni's",-1.230232716,36.84121369999,0,"NULL",3,"20100110 20120110 2100A110","20100010011 20100012011 20100100A11","100 120 100A"
"0210IKS","Aga Khan hospital",-1.269070745,36.81020093,0,"NULL",1,"20023110","20000002311","23W"
"0210ILA","Utalii",-1.256112224,36.85542940999,0,"NULL",1,"20077110","20101007700","0027"
"0210IMT","Mitikenda",-1.184324026,36.99306427999,0,"NULL",1,"20039110","20104003910","0039"
"0210INA","Pangani Police Post",-1.270315647,36.83555960999,0,"NULL",1,"20006110","20702000611","6"
"0210IRI","Maji Mazuri",-1.231949329,36.92613244,0,"NULL",1,"2017B110","21000017B11","17B"
"0210ISD","Desai",-1.271785498,36.82840884,0,"NULL",1,"20145110","20000145011","145"
"0210ITI","Utalii",-1.256405711,36.85563862,0,"NULL",1,"2025A110","20801025A11","25A"
"0210IVN","Drive In",-1.248483986,36.8636021,0,"NULL",1,"20025110","20801002511","25"
"0210IYU","Super Highway",-1.165175914,36.95830821999,0,"NULL",1,"20039110","20104003910","0039"
"0210JKT","JKUAT",-1.106981,37.01587299999,0,"NULL",1,"20237110","20000237011","237"
"0210JTS","St. Joseph",-1.241111755,36.98976516999,0,"NULL",1,"20039110","20104003910","0039"
"0210KAD","Kwa Ahindi",-1.173949242,36.82804941999,0,"NULL",2,"20120110 20120111","20100012011 20100012011","120 120"
"0210KAF","Family Bank",-1.280661285,36.96424662999,0,"NULL",1,"20039110","20104003910","0039"
"0210KAH","Kahawa Wendani",-1.196565628,36.92410469,0,"NULL",1,"20045110","20000004511","45K"
"0210KBM","Kariobangi Market Stage",-1.255533,36.878748,0,"NULL",1,"20042110","20807042011","42"
"0210KBO","Kimbo",-1.13317,36.97444099999,0,"NULL",1,"20237110","20000237011","237"
"0210KCA","KCA/Survey",-1.253374815,36.85901821,0,"NULL",9,"20044110 20044120 20045110 20045120 20049110 2017B110 20237110 2025A110 22930110","21100004411 21100004412 20000004511 20000004512 21000004911 21000017B11 20000237011 20801025A11 20701293011","44G 44Z 45K 45G 49 17B 237 25A 29/30"
"0210KDO","Kwa DO/Kiambu-Limuru Junction",-1.17498,36.83447999999,0,"NULL",4,"20100110 20120111 20121110 2100A110","20100010011 20100012011 20100012111 20100100A11","100 120 121 100A"
"0210KEB","Kobe",-1.226735115,36.99036598,0,"NULL",1,"20039110","20104003910","0039"
"0210KJA","Guru Nanak",-1.269973844,36.83283715999,0,"NULL",1,"2100A110","20100100A11","100A"
"0210KLI","Old Kiambu",-1.172275543,36.8265152,0,"NULL",2,"20100110 20120110","20100010011 20100012011","100 120"
"0210KPO","Kiambu Mall/Posta",-1.164979935,36.82385444999,0,"NULL",3,"20120110 20120111 20121110","20100012011 20100012011 20100012111","120 120 121"
"0210KRB","Karambe",-1.266978979,36.84567152999,0,"NULL",1,"20006110","20702000611","6"
"0210KU.","KU",-1.182017326,36.93785906,0,"NULL",5,"20044110 20044120 20044210 20045110 20237110","21100004411 21100004412 21100004421 20000004511 20000237011","44G 44Z 44K 45K 237"
"0210KWD","Kwa Dogi",-1.15693,36.93268599999,0,"NULL",1,"20000720","20700145D01","145D"
"0210KYR","Kwa Roy",-1.17460674,36.97780788,0,"NULL",1,"20039110","20104003910","0039"
"0210KYS","Tuskys",-1.317770809,36.918464,0,"NULL",1,"20039110","20104003910","0039"
"0210LGC","Grafins College",-1.266406417,36.80548024,0,"NULL",1,"20023110","20000002311","23W"
"0210LH'","Overcomer's Chapel",-1.158426046,36.81864023,0,"NULL",2,"20120110 20121110","20100012011 20100012111","120 121"
"0210LOA","Allsops",-1.245651573,36.86668128,0,"NULL",1,"20145110","20000145011","145"
"0210LSL","Allsops",-1.245678395,36.8671748,0,"NULL",1,"2025A110","20801025A11","25A"
"0210LUI","Muslim Road",-1.275686949,36.83133512999,0,"NULL",1,"2100A110","20100100A11","100A"
"0210MBL","Membley",-1.156222,36.93035799999,0,"NULL",1,"20000720","20700145D01","145D"
"0210MET","Metro",-1.217658,36.89856199999,0,"NULL",1,"20049110","21000004911","49"
"0210MF","FM",-1.269414425,36.84067726,0,"NULL",1,"20006110","20702000611","6"
"0210MGC","Muthaiga Golf Club Stage",-1.258900166,36.84252261999,0,"NULL",3,"20120111 20121110 2100A110","20100012011 20100012111 20100100A11","120 121 100A"
"0210MIN","Amani",-1.281119585,36.96332395,0,"NULL",1,"20039110","20104003910","0039"
"0210MNG","Mang'u",-1.075546,37.046508,0,"NULL",1,"20237110","20000237011","237"
"0210MQT","Quickmart",-1.20231244,36.83407098,0,"NULL",3,"20100110 20120110 2100A110","20100010011 20100012011 20100100A11","100 120 100A"
"0210MSL","muthaiga Golf Club Stage",-1.258874863,36.8425414,0,"NULL",1,"20100110","20100010011","100"
"0210MTG","Muthaiga",-1.260445118,36.84361695999,0,"NULL",12,"20025110 20043110 20044110 20044120 20045110 20045120 20049110 20145110 2017B110 20237110 2025A110 22930110","20801002511 20901043011 21100004411 21100004412 20000004511 20000004512 21000004911 20000145011 21000017B11 20000237011 20801025A11 20701293011","25 43 44G 44Z 45K 45G 49 145 17B 237 25A 29/30"
"0210NAK","Kwa Kanisa",-1.0569942,37.05579578999,0,"NULL",1,"20237110","20000237011","237"
"0210NAM","Transami",-1.327173114,36.89490615999,0,"NULL",1,"20039110","20104003910","0039"
"0210NAS","Naivas",-1.218634,36.895833,0,"NULL",2,"20049110 2017B110","21000004911 21000017B11","49 17B"
"0210NCY","Centy Club",-1.234148741,36.99011921999,0,"NULL",1,"20039110","20104003910","0039"
"0210NGE","Evergreen",-1.209211081,36.83307855999,0,"NULL",1,"20100110","20100010011","100"
"0210NGR","Ngara Stage",-1.274687648,36.82440697999,0,"0003NGR",10,"20025110 20044110 20044120 20045110 20049110 20145110 20237110 2025A110 3011C110 3046B110","20801002511 21100004411 21100004412 20000004511 21000004911 20000145011 20000237011 20801025A11 30100011C11 30000046B11","25 44G 44Z 45K 49 145 237 25A 11C 46B"
"0210NID","Drive In",-1.24895069,36.86322658999,0,"NULL",1,"20145110","20000145011","145"
"0210NIG","Kirigu-ini",-1.148095608,36.80741787,0,"NULL",1,"20120110","20100012011","120"
"0210NIM","Kiambu Terminus",-1.168831587,36.82654469999,0,"NULL",1,"20121110","20100012111","121"
"0210NIR","Drive In",-1.248864895,36.86276792999,0,"NULL",1,"20077110","20101007700","0027"
"0210NRS","Kariobangi Mwisho",-1.253065234,36.88485861,0,"NULL",1,"20077110","20101007700","0027"
"0210NTR","Naivas Ciata Mall/Ridgeways Mall",-1.22544,36.83899999999,0,"NULL",4,"20100110 20120111 20121110 2100A110","20100010011 20100012011 20100012111 20100100A11","100 120 121 100A"
"0210NUR","Guru Nanak",-1.269232035,36.83247507,0,"NULL",1,"20025110","20801002511","25"
"0210NWK","Kahawa Wendani",-1.196646094,36.92390084,0,"NULL",2,"20044110 20044210","21100004411 21100004421","44G 44K"
"0210OIK","Mihango Kayole Junction",-1.287837356,36.95198624999,0,"NULL",1,"20039110","20104003910","0039"
"0210OLT","Toll",-1.130851507,36.98221207,0,"NULL",1,"20237110","20000237011","237"
"0210ONR","Corner",-1.185450554,36.99479163,0,"NULL",1,"20039110","20104003910","0039"
"0210OOI","Gititu Coffee Factory",-1.084299088,36.78218365,0,"NULL",1,"20120110","20100012011","120"
"0210OON","Njomoko",-1.044895112,37.06069887,0,"NULL",1,"20237110","20000237011","237"
"0210OUN","KSC International/Junction",-1.240866512,36.88772588999,0,"NULL",1,"2025A110","20801025A11","25A"
"0210OUS","Githunguri Township",-1.056968093,36.78067088,0,"NULL",1,"20120110","20100012011","120"
"0210OUU","Kihunguro",-1.16004467,36.95893585999,0,"NULL",1,"20145110","20000145011","145"
"0210-P0","Triple-0",-1.272721946,36.97467506,0,"NULL",1,"20039110","20104003910","0039"
"0210PA.","AP",-1.285349786,36.95592105,0,"NULL",1,"20039110","20104003910","0039"
"0210PAS","Safari Park",-1.225807071,36.88544065,0,"NULL",2,"20049110 2017B110","21000004911 21000017B11","49 17B"
"0210PMH","Pumwani Hospital",-1.280534863,36.84457719,0,"NULL",2,"30028110 30041110","30800002811 30007004111","28 41"
"0210PMS","Pumwani Stage",-1.284349,36.84315999999,0,"NULL",2,"30028111 30041111","30800002811 30007004111","28 41"
"0210PNG","Pangani/Muthaiga Footbridge",-1.263926625,36.83806478999,0,"NULL",12,"20025110 20043110 20044110 20044120 20045110 20045120 20049110 20121110 20145110 2017B110 20237110 2025A110","20801002511 20901043011 21100004411 21100004412 20000004511 20000004512 21000004911 20100012111 20000145011 21000017B11 20000237011 20801025A11","25 43 44G 44Z 45K 45G 49 121 145 17B 237 25A"
"0210PPS","Police Post",-1.219433,36.90363099999,0,"NULL",2,"20049110 2017B110","21000004911 21000017B11","49 17B"
"0210PRS","Prison",-1.151878,36.928673,0,"NULL",1,"20000720","20700145D01","145D"
"0210PSK","Bypass/Kwaheri",-1.215137243,36.8350178,0,"NULL",1,"2100A110","20100100A11","100A"
"0210PYS","Bypass",-1.264157295,36.98298991,0,"NULL",1,"20039110","20104003910","0039"
"0210RAO","Astro",-1.290562268,36.94753446,0,"NULL",1,"20039110","20104003910","0039"
"0210RAT","Roasters",-1.234867573,36.87391519999,0,"NULL",1,"2017B110","21000017B11","17B"
"0210RBA","Barua",-1.193017423,36.83994234,0,"NULL",2,"20100110 20120110","20100010011 20100012011","100 120"
"0210RBU","Barua",-1.194019049,36.83979212999,0,"NULL",2,"20121110 2100A110","20100012111 20100100A11","121 100A"
"0210RIH","Chandaria",-1.244239211,36.88502490999,0,"NULL",1,"20025110","20801002511","25"
"0210RMT","TRM",-1.22023344,36.89155339999,0,"NULL",1,"2017B110","21000017B11","17B"
"0210RNA","Kasarini",-1.205921173,36.83200836,0,"NULL",1,"20120110","20100012011","120"
"0210RND","Rounder Terminal",-1.262344122,36.87873780999,0,"NULL",1,"20042110","20807042011","42"
"0210RSB","Roysambu Footbridge",-1.217229366,36.89452528999,0,"NULL",5,"20044110 20044120 20045110 20045120 20237110","21100004411 21100004412 20000004511 20000004512 20000237011","44G 44Z 45K 45G 237"
"0210RSC","KCA University",-1.252357131,36.85940981,0,"NULL",1,"20077110","20101007700","0027"
"0210RSI","Kasarini",-1.204393834,36.83275669999,0,"NULL",1,"2100A110","20100100A11","100A"
"0210RV2","Riverside 2",-1.249469519,36.87784194999,0,"NULL",1,"2025A110","20801025A11","25A"
"0210RYS","Roysambu",-1.220431924,36.89103304999,0,"NULL",2,"20044110 20044120","21100004411 21100004412","44G 44Z"
"0210SAE","Kastemil",-1.212594509,36.90338730999,0,"NULL",1,"20044120","21100004412","44Z"
"0210SAI","Kamakis",-1.178672969,36.98424518,0,"NULL",1,"20039110","20104003910","0039"
"0210SAO","Roysambu",-1.217191815,36.89447701,0,"NULL",1,"20145110","20000145011","145"
"0210SAP","Allsops",-1.245705217,36.86705947,0,"NULL",1,"20025110","20801002511","25"
"0210SAR","Roasters",-1.233923435,36.87461256999,0,"NULL",1,"20237110","20000237011","237"
"0210SBA","Airbase",-1.315276355,36.92168266,0,"NULL",1,"20039110","20104003910","0039"
"0210SEW","Sewage",-1.098943949,37.02455878,0,"NULL",1,"20237110","20000237011","237"
"0210SHA","Kahawa Sukari",-1.188910604,36.93129300999,0,"NULL",3,"20044120 20044210 20045110","21100004412 21100004421 20000004511","44Z 44K 45K"
"0210SKA","Samaki",-1.246261597,36.87797069999,0,"NULL",1,"2025A110","20801025A11","25A"
"0210SMB","Supermambo",-1.27024,36.8327,0,"NULL",2,"20100110 20120111","20100010011 20100012011","100 120"
"0210SMW","Kwa Mlima",-1.233075857,36.92863226,0,"NULL",2,"2017B110 2017B120","21000017B11 21200017B12","17B 17B_2"
"0210SRA","Kasarani Primary",-1.220422625,36.90459323,0,"NULL",1,"2017B110","21000017B11","17B"
"0210S/T","19/60 Stage",-1.285348302,36.83226584999,0,"NULL",1,"20077110","20101007700","0027"
"0210STD","Stadium",-1.221149,36.89023799999,0,"NULL",2,"20044110 20145110","21100004411 20000145011","44G 145"
"0210SUN","Sunton",-1.229605079,36.92096651,0,"NULL",2,"2017B110 2017B120","21000017B11 21200017B12","17B 17B_2"
"0210SUR","Utalii",-1.256711483,36.85553132999,0,"NULL",9,"20043110 20044110 20044120 20045110 20045120 20049110 2017B110 20237110 22930110","20901043011 21100004411 21100004412 20000004511 20000004512 21000004911 21000017B11 20000237011 20701293011","43 44G 44Z 45K 45G 49 17B 237 29/30"
"0210TAE","Roasters",-1.234744191,36.87396348,0,"NULL",6,"20044110 20044120 20045110 20045120 20049110 20145110","21100004411 21100004412 20000004511 20000004512 21000004911 20000145011","44G 44Z 45K 45G 49 145"
"0210TDL","Parklands Sports Club",-1.269453406,36.81245399,0,"NULL",1,"20023110","20000002311","23W"
"0210TEE","Eastleigh Terminal",-1.272252202,36.84884190999,0,"NULL",1,"20006110","20702000611","6"
"0210TER","St. Teresa",-1.266657114,36.84738277999,0,"NULL",1,"20006110","20702000611","6"
"0210TGA","Ting'ang'a",-1.128432,36.811953,0,"NULL",1,"20120111","20100012011","120"
"0210TIB","Kiambu Terminus",-1.167781592,36.82469129999,0,"NULL",1,"20120110","20100012011","120"
"0210TIG","Ruui/Kirigiti",-1.178816289,36.83735132,0,"NULL",1,"2100A110","20100100A11","100A"
"0210TMR","TRM/Roysambu",-1.220374435,36.89108937999,0,"NULL",1,"20237110","20000237011","237"
"0210TRT","Torrents",-1.160577,36.944155,0,"NULL",1,"20000720","20700145D01","145D"
"0210TUH","Muthaiga",-1.260060436,36.84340774999,0,"NULL",1,"20077110","20101007700","0027"
"0210TYE","Equity",-1.218060851,36.90011232999,0,"NULL",1,"2017B120","21200017B12","17B_2"
"0210UIK","Ikinu Primary",-1.101434469,36.79791211999,0,"NULL",1,"20120110","20100012011","120"
"0210UKO","Kihunguro",-1.159826249,36.95911556,0,"NULL",1,"20237110","20000237011","237"
"0210/US","TRM/Roysambu",-1.220469475,36.89088821,0,"NULL",1,"20145110","20000145011","145"
"0210USG","GSU",-1.289645165,36.94906800999,0,"NULL",1,"20039110","20104003910","0039"
"0210UWT","Muthurwa",-1.286167502,36.83222026,0,"NULL",1,"2017B110","21000017B11","17B"
"0210UYU","Muyuyu Avenue",-1.271549463,36.84869707,0,"NULL",1,"20006110","20702000611","6"
"0210VIS","Naivas",-1.24751839,36.87301129,0,"NULL",1,"2025A110","20801025A11","25A"
"0210VNA","Naivas",-1.218747497,36.89567864,0,"NULL",1,"2017B120","21200017B12","17B_2"
"0210WDH","Kahawa Wendani",-1.196597815,36.9239223,0,"NULL",2,"20044120 20237110","21100004412 20000237011","44Z 237"
"0210WOK","Kwa DO",-1.219319522,36.9036094,0,"NULL",1,"2017B120","21200017B12","17B_2"
"0210WPE","Dawa Pharmaceuticals",-1.247034073,36.87503098999,0,"NULL",1,"2025A110","20801025A11","25A"
"0210WTH","Witeithie",-1.068200469,37.05117166,0,"NULL",1,"20237110","20000237011","237"
"0210YPS","Bypass",-1.16525504,36.95735604,0,"NULL",1,"20237110","20000237011","237"
"0210ZMM","Maji Mazuri",-1.231949329,36.92613244,0,"NULL",1,"2017B120","21200017B12","17B_2"
"0211AAA","Kahawa Sukari",-1.188400984,36.93115353999,0,"NULL",4,"20044111 20044121 20044211 20045111","21100004411 21100004412 21100004421 20000004511","44G 44Z 44K 45K"
"0211AAJ","Juja Mall",-1.118481159,37.00953840999,0,"NULL",1,"20237111","20000237011","237"
"0211AAW","Kahawa",-1.195911169,36.92383111,0,"NULL",1,"20237111","20000237011","237"
"0211ACB","Barracks",-1.311664581,36.92534386999,0,"NULL",1,"20039111","20104003910","0039"
"0211ACD","Baba Dogo Catholic Church",-1.244142652,36.88469230999,0,"NULL",1,"2025A111","20801025A11","25A"
"0211ADI","Kahawa Wendani",-1.196324229,36.92342877,0,"NULL",2,"20044111 20044121","21100004411 21100004412","44G 44Z"
"0211AEC","Overcomers Chapel",-1.158051967,36.81746006,0,"NULL",2,"20120111 20121111","20100012011 20100012111","120 121"
"0211AEP","Savanna Petrol",-1.058059215,36.78192615999,0,"NULL",1,"20120111","20100012011","120"
"0211AFY","Fancy",-1.275385022,36.97156369999,0,"NULL",1,"20039111","20104003910","0039"
"0211AGA","Pangani Police",-1.270322531,36.8352887,0,"NULL",1,"2100A111","20100100A11","100A"
"0211AGC","Baba Dogo Junction/Dawa",-1.24715209,36.87443554,0,"NULL",1,"22030111","20800203001","2030"
"0211AHN","China",-1.292921305,36.94411396999,0,"NULL",1,"20039111","20104003910","0039"
"0211AIC","Quickmart",-1.202403635,36.83386176999,0,"NULL",3,"20100111 20120111 2100A111","20100010011 20100012011 20100100A11","100 120 100A"
"0211AIK","Kamakis",-1.170865417,36.97226643999,0,"NULL",1,"20039111","20104003910","0039"
"0211AKW","Kwa DO/Kiambu Limuru Junction",-1.175043583,36.83417559,0,"NULL",1,"20100111","20100010011","100"
"0211ALN","Naivas Ciata Mall/Ridgeways Mall",-1.225567192,36.83885604,0,"NULL",2,"20121111 2100A111","20100012111 20100100A11","121 100A"
"0211ALS","Allsops",-1.244064,36.867212,0,"NULL",4,"20044111 20045111 20049111 2017B111","21100004411 20000004511 21000004911 21000017B11","44G 45K 49 17B"
"0211AMN","Amani",-1.281065941,36.96338832,0,"NULL",1,"20039111","20104003910","0039"
"0211'AN","Jehovah's Witness Ting'ang'a",-1.126753092,36.81388736,0,"NULL",1,"20120111","20100012011","120"
"0211ANN","Pangani",-1.263819337,36.83759272,0,"NULL",1,"20237111","20000237011","237"
"0211ANP","Pangani",-1.263728142,36.83758198999,0,"NULL",1,"2100A111","20100100A11","100A"
"0211ANS","St. Francis",-1.226145029,36.91620826999,0,"NULL",1,"2017B111","21000017B11","17B"
"0211.AP","AP",-1.285454035,36.95582448999,0,"NULL",1,"20039111","20104003910","0039"
"0211ARS","Safari Park",-1.225254536,36.88513755999,0,"NULL",2,"20045121 20145111","20000004512 20000145011","45G 145"
"0211ASP","Allsops",-1.243799329,36.86749399,0,"NULL",1,"20145111","20000145011","145"
"0211AUR","Guru Nanak",-1.26960218,36.83204055,0,"NULL",2,"20027111 20044121","20101007700 21100004412","0027 44Z"
"0211AVA","Naivas",-1.247184277,36.87257409,0,"NULL",1,"20025111","20801002511","25"
"0211AWA","Kahawa",-1.196470588,36.92339391,0,"NULL",1,"20145111","20000145011","145"
"0211BHC","Baba Dogo Catholic Church",-1.2442047,36.88469768,0,"NULL",1,"20025111","20801002511","25"
"0211BLA","Total Kiambu",-1.174985289,36.82890772999,0,"NULL",1,"20120111","20100012011","120"
"0211BLR","Balkan Sec School/Fourways",-1.212254226,36.833902,0,"NULL",1,"20100111","20100010011","100"
"0211B/O","Kobil/K1",-1.267567098,36.81204951,0,"NULL",1,"20023111","20000002311","23W"
"0211B/W","Bypass/Kwaheri",-1.215396255,36.8349722,0,"NULL",1,"2100A111","20100100A11","100A"
"0211BYP","Bypass",-1.164175272,36.95703685,0,"NULL",3,"20145111 20237111 50145111","20000145011 20000237011 50700014501","145 237 145B"
"0211CID","CID",-1.2503,36.84658,0,"NULL",2,"20100111 2100A111","20100010011 20100100A11","100 100A"
"0211CKS","Clay Works",-1.171563595,36.94760888999,0,"NULL",1,"20145111","20000145011","145"
"0211CLA","Utawala Junction/ Benedicta",-1.278753877,36.96796417,0,"NULL",1,"20039111","20104003910","0039"
"0211CTT","Muthithi Tausi Junction",-1.266612232,36.80779016,0,"NULL",1,"20023111","20000002311","23W"
"0211CYE","Garden City",-1.230822802,36.87764347,0,"NULL",1,"20145111","20000145011","145"
"0211DBR","Ndumberi",-1.15155,36.805526,0,"NULL",1,"20120110","20100012011","120"
"0211DEV","Riverside",-1.249748468,36.87845348999,0,"NULL",1,"22030111","20800203001","2030"
"0211DRN","Drive In",-1.24788,36.86434299999,0,"NULL",1,"22930111","20701293011","29/30"
"0211DRV","Drive In",-1.248664856,36.86288594999,0,"NULL",9,"20043111 20044111 20044121 20045111 20045121 20049111 2017B111 20237111 22930111","20901043011 21100004411 21100004412 20000004511 20000004512 21000004911 21000017B11 20000237011 20701293011","43 44G 44Z 45K 45G 49 17B 237 29/30"
"0211EAR","Homeland/Garden City",-1.230887175,36.87754691,0,"NULL",2,"20044121 20045111","21100004412 20000004511","44Z 45K"
"0211EIN","Drive In",-1.249138445,36.86252921999,0,"NULL",1,"2025A111","20801025A11","25A"
